[
  {
    "nombre": "La Picá del Canalla (Sanguchería)",
    "lat": -33.0652934,
    "lng": -71.4222519
  },
  {
    "nombre": "Sandwicheria Buen Gusto",
    "lat": -33.0480549,
    "lng": -71.4455821
  },
  {
    "nombre": "Sangucheria Fenix",
    "lat": -33.0478912,
    "lng": -71.4452172
  },
  {
    "nombre": "Sandwicheria De Calle",
    "lat": -33.0595191,
    "lng": -71.4052162
  },
  {
    "nombre": "Gorilas",
    "lat": -33.042553,
    "lng": -71.4378338
  },
  {
    "nombre": "Parada Custom",
    "lat": -33.0430267,
    "lng": -71.4663943
  },
  {
    "nombre": "Sangucheria Trece y medio",
    "lat": -33.0459065,
    "lng": -71.4051518
  },
  {
    "nombre": "Sandwicheria Churraskon",
    "lat": -33.0615583,
    "lng": -71.4245596
  },
  {
    "nombre": "Sandwiches Donde La Abu",
    "lat": -33.0870806,
    "lng": -71.378555
  },
  {
    "nombre": "Sangucheria Racing",
    "lat": -33.0493555,
    "lng": -71.4673942
  },
  {
    "nombre": "SANGUCHERIA ANDRES",
    "lat": -33.0626972,
    "lng": -71.4071531
  },
  {
    "nombre": "Sandwichería Mis Delicias",
    "lat": -33.0460883,
    "lng": -71.4035637
  },
  {
    "nombre": "Sangucheria donde la nia",
    "lat": -33.0608971,
    "lng": -71.4263999
  },
  {
    "nombre": "Sandwicheria MyB",
    "lat": -33.0472463,
    "lng": -71.4118003
  },
  {
    "nombre": "Toros Food",
    "lat": -33.0481582,
    "lng": -71.4294164
  },
  {
    "nombre": "La Gran Mechada",
    "lat": -33.046746,
    "lng": -71.4079392
  },
  {
    "nombre": "Donde la Veci",
    "lat": -33.0445369,
    "lng": -71.437601
  },
  {
    "nombre": "LaraGourmet",
    "lat": -33.0665302,
    "lng": -71.4154393
  },
  {
    "nombre": "Sazón",
    "lat": -33.0485613,
    "lng": -71.444132
  },
  {
    "nombre": "Biggies",
    "lat": -33.0464428,
    "lng": -71.4072733
  },
  {
    "nombre": "Sanguchería La Taquilla",
    "lat": -33.0382267,
    "lng": -71.358717
  },
  {
    "nombre": "Panaderia Central",
    "lat": -33.04674,
    "lng": -71.4423887
  },
  {
    "nombre": "Panadería y Pastelería Pucón",
    "lat": -33.0584716,
    "lng": -71.4265328
  },
  {
    "nombre": "Panadería Olca",
    "lat": -33.0482897,
    "lng": -71.4094157
  },
  {
    "nombre": "Panadería Centenario",
    "lat": -33.0477221,
    "lng": -71.4149218
  },
  {
    "nombre": "Pan y Pan",
    "lat": -33.0464777,
    "lng": -71.4437412
  },
  {
    "nombre": "Panaderia Quilpue",
    "lat": -33.04752,
    "lng": -71.4304481
  },
  {
    "nombre": "Panadería San Miguel",
    "lat": -33.0444027,
    "lng": -71.4698985
  },
  {
    "nombre": "Panaderia Y Pasteleria El Charly",
    "lat": -33.0557304,
    "lng": -71.4602377
  },
  {
    "nombre": "Panaderia Venezia",
    "lat": -33.0368329,
    "lng": -71.4327585
  },
  {
    "nombre": "Panaderia Past. el Trebol",
    "lat": -33.0363889,
    "lng": -71.4841667
  },
  {
    "nombre": "panaderia pedro montt",
    "lat": -33.0507299,
    "lng": -71.4513376
  },
  {
    "nombre": "Panaderia Las Delicias",
    "lat": -33.0392031,
    "lng": -71.4409808
  },
  {
    "nombre": "SALMO BREAD",
    "lat": -33.044946,
    "lng": -71.4373256
  },
  {
    "nombre": "Panadería Brasil",
    "lat": -33.0381564,
    "lng": -71.4449855
  },
  {
    "nombre": "Pastelería y Panadería Paraíso",
    "lat": -33.0525414,
    "lng": -71.4312119
  },
  {
    "nombre": "Panadería Los Pinos II",
    "lat": -33.0659912,
    "lng": -71.4261002
  },
  {
    "nombre": "Panadería y pastelería Mana",
    "lat": -33.0494239,
    "lng": -71.4087157
  },
  {
    "nombre": "Panadería Olca Belloto Sur",
    "lat": -33.0567741,
    "lng": -71.406272
  },
  {
    "nombre": "MIAMI FOOD MARKET",
    "lat": -33.0591901,
    "lng": -71.43689
  },
  {
    "nombre": "Restaurant & Cafe Alaral",
    "lat": -33.0466341,
    "lng": -71.4344097
  },
  {
    "nombre": "Panadería Brasil",
    "lat": -33.0381564,
    "lng": -71.4449855
  },
  {
    "nombre": "Panaderia Del Sur",
    "lat": -33.0471977,
    "lng": -71.4422695
  },
  {
    "nombre": "Dist. Confites Alijor de papulandia",
    "lat": -33.0467274,
    "lng": -71.4379839
  },
  {
    "nombre": "Pasteleria Stuttgart",
    "lat": -33.045982,
    "lng": -71.4413145
  },
  {
    "nombre": "Doña Pilar",
    "lat": -33.0448329,
    "lng": -71.4382157
  },
  {
    "nombre": "Provimarket",
    "lat": -33.0474732,
    "lng": -71.4444427
  },
  {
    "nombre": "Express de Lider",
    "lat": -33.048338,
    "lng": -71.442529
  },
  {
    "nombre": "Santa Isabel",
    "lat": -33.0479498,
    "lng": -71.4420836
  },
  {
    "nombre": "Supermercado Lider",
    "lat": -33.0454974,
    "lng": -71.4185684
  },
  {
    "nombre": "Jumbo",
    "lat": -33.0453715,
    "lng": -71.4227682
  },
  {
    "nombre": "Santa Isabel",
    "lat": -33.0461123,
    "lng": -71.4431822
  },
  {
    "nombre": "EcoSuper",
    "lat": -33.046942,
    "lng": -71.436884
  },
  {
    "nombre": "Provimarket",
    "lat": -33.0501139,
    "lng": -71.4327323
  },
  {
    "nombre": "Unimarc",
    "lat": -33.054952,
    "lng": -71.4260837
  },
  {
    "nombre": "La Granja",
    "lat": -33.0462654,
    "lng": -71.4399307
  },
  {
    "nombre": "Supermercado Mayorista 10",
    "lat": -33.0438977,
    "lng": -71.4182444
  },
  {
    "nombre": "Santa Isabel Población Valencia",
    "lat": -33.0432319,
    "lng": -71.4646072
  },
  {
    "nombre": "Emporio Central Quilpue",
    "lat": -33.0479864,
    "lng": -71.4440784
  },
  {
    "nombre": "Santa Isabel, Mall Plaza del Sol Quilpué",
    "lat": -33.0471281,
    "lng": -71.4408272
  },
  {
    "nombre": "Santa Isabel",
    "lat": -33.0658604,
    "lng": -71.4232162
  },
  {
    "nombre": "Supermercado Erbi",
    "lat": -33.067751,
    "lng": -71.4184259
  },
  {
    "nombre": "Emporio Clafira",
    "lat": -33.0479066,
    "lng": -71.4449511
  },
  {
    "nombre": "Provisiones La Vecina",
    "lat": -33.0522096,
    "lng": -71.4460912
  },
  {
    "nombre": "Santa Isabel El Belloto",
    "lat": -33.0449676,
    "lng": -71.4202957
  },
  {
    "nombre": "Central Mayorista",
    "lat": -33.0469659,
    "lng": -71.418753
  },
  {
    "nombre": "Emporio K market",
    "lat": -33.0461724,
    "lng": -71.4442425
  },
  {
    "nombre": "Alvi",
    "lat": -33.0444356,
    "lng": -71.4174571
  },
  {
    "nombre": "Santa Isabel",
    "lat": -33.0460195,
    "lng": -71.4039104
  },
  {
    "nombre": "Supermercado Tottus Quilpué",
    "lat": -33.0449749,
    "lng": -71.4000647
  },
  {
    "nombre": "La Mymi",
    "lat": -33.052767,
    "lng": -71.4488563
  },
  {
    "nombre": "Mini Mercado Supermercado de Frutas",
    "lat": -33.0544701,
    "lng": -71.4373641
  },
  {
    "nombre": "Marbella congelados",
    "lat": -33.0462424,
    "lng": -71.443227
  },
  {
    "nombre": "Bodega Futrono",
    "lat": -33.0492593,
    "lng": -71.4360452
  },
  {
    "nombre": "DISTRIBUIDORA Y COMERCIAL PROVIMARKET LTDA.",
    "lat": -33.0468045,
    "lng": -71.4389747
  },
  {
    "nombre": "Mall De Quilpue",
    "lat": -33.0469927,
    "lng": -71.4417825
  },
  {
    "nombre": "DISTRUBUIDORA AUSTRAL (MAYORISTA)",
    "lat": -33.046654,
    "lng": -71.436788
  },
  {
    "nombre": "Falabella Quilpué",
    "lat": -33.0469326,
    "lng": -71.4409753
  },
  {
    "nombre": "Express de Lider",
    "lat": -33.0345001,
    "lng": -71.4053421
  },
  {
    "nombre": "MiniMarket El Pelao",
    "lat": -33.0498,
    "lng": -71.4564899
  },
  {
    "nombre": "Provisiones \"El Retiro\"",
    "lat": -33.039004,
    "lng": -71.44113
  },
  {
    "nombre": "Minimarket Larense",
    "lat": -33.0476565,
    "lng": -71.4321889
  },
  {
    "nombre": "Minimarket \"SINGAPUR\"",
    "lat": -33.0527128,
    "lng": -71.4312884
  },
  {
    "nombre": "Fiambreria alemana kampf y Saez",
    "lat": -33.0464859,
    "lng": -71.4426815
  },
  {
    "nombre": "Provisiones los Molinos",
    "lat": -33.0461128,
    "lng": -71.4528709
  },
  {
    "nombre": "Bodega Ahorro",
    "lat": -33.0433131,
    "lng": -71.4165153
  },
  {
    "nombre": "Supermercado Lider",
    "lat": -33.025925,
    "lng": -71.547476
  },
  {
    "nombre": "Minimarket El Mumo",
    "lat": -33.0531249,
    "lng": -71.458427
  },
  {
    "nombre": "Fiambrería la baguette",
    "lat": -33.0468493,
    "lng": -71.4422342
  },
  {
    "nombre": "Minimercado",
    "lat": -33.047703,
    "lng": -71.4457826
  },
  {
    "nombre": "Tercer Tiempo",
    "lat": -33.0482707,
    "lng": -71.4408752
  },
  {
    "nombre": "Pablo Neruda s/n",
    "lat": -33.0573948,
    "lng": -71.4423561
  },
  {
    "nombre": "Pedro Pablo",
    "lat": -33.0504542,
    "lng": -71.4321719
  },
  {
    "nombre": "Delistore LTDA. Repostería Gastronomía Delicatessen",
    "lat": -33.0465915,
    "lng": -71.4443379
  },
  {
    "nombre": "Herbolario Mika",
    "lat": -33.0465278,
    "lng": -71.4396912
  },
  {
    "nombre": "Sheep Noona",
    "lat": -33.0467093,
    "lng": -71.4421219
  },
  {
    "nombre": "MALL CHINO YIVI",
    "lat": -33.0418663,
    "lng": -71.4249114
  },
  {
    "nombre": "Botillería del Centro",
    "lat": -33.0457124,
    "lng": -71.44353
  },
  {
    "nombre": "Botilleria Los Jose's",
    "lat": -33.0558688,
    "lng": -71.4481707
  },
  {
    "nombre": "Botilleria Cris",
    "lat": -33.0575429,
    "lng": -71.4268922
  },
  {
    "nombre": "Botilleria Al Paso",
    "lat": -33.0482125,
    "lng": -71.4432942
  },
  {
    "nombre": "Botilleria los Carrera",
    "lat": -33.0483398,
    "lng": -71.4436009
  },
  {
    "nombre": "Botilleria Diablo malo",
    "lat": -33.0455939,
    "lng": -71.4431416
  },
  {
    "nombre": "Botilleria Valencia",
    "lat": -33.0460789,
    "lng": -71.4406275
  },
  {
    "nombre": "Botilleria El Tata",
    "lat": -33.0555063,
    "lng": -71.4458606
  },
  {
    "nombre": "Botilleria Minimarket Suyana",
    "lat": -33.0522377,
    "lng": -71.4439442
  },
  {
    "nombre": "Botilleria Donde La Yaya",
    "lat": -33.039626,
    "lng": -71.4412167
  },
  {
    "nombre": "Botilleria Maxim",
    "lat": -33.0474615,
    "lng": -71.4327833
  },
  {
    "nombre": "BOTILLERIA LA AVENTURA",
    "lat": -33.0569333,
    "lng": -71.4226512
  },
  {
    "nombre": "El Gato Negro",
    "lat": -33.051033,
    "lng": -71.4508234
  },
  {
    "nombre": "LIQUIDOS.cl",
    "lat": -33.0478561,
    "lng": -71.4452923
  },
  {
    "nombre": "Licorería El Gringo",
    "lat": -33.0716958,
    "lng": -71.4241245
  },
  {
    "nombre": "BOTILLERIA LA PICÁ DEL FACU",
    "lat": -33.0465292,
    "lng": -71.4370872
  },
  {
    "nombre": "Botillería y minimarket Los Rivera",
    "lat": -33.0596971,
    "lng": -71.4510167
  },
  {
    "nombre": "Botilleria",
    "lat": -33.037721,
    "lng": -71.4108817
  },
  {
    "nombre": "Botilleria Quinta Boti",
    "lat": -33.0457124,
    "lng": -71.44353
  },
  {
    "nombre": "Botillería Tita",
    "lat": -33.0510704,
    "lng": -71.4264915
  },
  {
    "nombre": "Botilleria y almacen \"Per sempre\"",
    "lat": -33.0617166,
    "lng": -71.4122989
  },
  {
    "nombre": "Botilleria Sal Gruesa",
    "lat": -33.0358985,
    "lng": -71.4012491
  },
  {
    "nombre": "Botilleria los Carrera",
    "lat": -33.0483398,
    "lng": -71.4436009
  },
  {
    "nombre": "Botilleria \"La Capilla\"",
    "lat": -33.0654244,
    "lng": -71.4224398
  },
  {
    "nombre": "Botillería Entre@migos",
    "lat": -33.0434199,
    "lng": -71.4695099
  },
  {
    "nombre": "Botillería y minimarket Los Rivera",
    "lat": -33.0596971,
    "lng": -71.4510167
  },
  {
    "nombre": "Botilleria Krause",
    "lat": -33.0503773,
    "lng": -71.46617
  },
  {
    "nombre": "Botilleria y Abarrotes La Frontera",
    "lat": -33.0422726,
    "lng": -71.4305057
  },
  {
    "nombre": "Botilleria La boti",
    "lat": -33.0507657,
    "lng": -71.4289715
  },
  {
    "nombre": "Botilleria El Duende",
    "lat": -33.0472188,
    "lng": -71.4118777
  },
  {
    "nombre": "Botilleria El Valle",
    "lat": -33.0416589,
    "lng": -71.4804101
  },
  {
    "nombre": "Botillería GIRAN",
    "lat": -33.0586952,
    "lng": -71.4052356
  },
  {
    "nombre": "Botilleria Al paso",
    "lat": -33.0445741,
    "lng": -71.4620157
  },
  {
    "nombre": "Botilleria y Provisiones Carol",
    "lat": -33.0638909,
    "lng": -71.4344229
  },
  {
    "nombre": "Minimarket Eloy Botilleria",
    "lat": -33.0501106,
    "lng": -71.4015556
  },
  {
    "nombre": "Minimarket Y Botilleria \"Donde Rojito\"",
    "lat": -33.0363271,
    "lng": -71.4084855
  },
  {
    "nombre": "Botilleria Minimarket Suyana",
    "lat": -33.0522377,
    "lng": -71.4439442
  },
  {
    "nombre": "BOTILLERIA LA PICÁ DEL FACU",
    "lat": -33.0465292,
    "lng": -71.4370872
  },
  {
    "nombre": "El Gato Negro",
    "lat": -33.051033,
    "lng": -71.4508234
  },
  {
    "nombre": "Minimarket & Botilleria Jeanet Saavedra",
    "lat": -33.04788,
    "lng": -71.47277
  },
  {
    "nombre": "Proviciones botillería Rosy",
    "lat": -33.071582,
    "lng": -71.4254728
  },
  {
    "nombre": "Botilleria Oscarito",
    "lat": -33.0425765,
    "lng": -71.4716569
  },
  {
    "nombre": "Botillería y provisiones Marta",
    "lat": -33.054694,
    "lng": -71.419119
  },
  {
    "nombre": "Botilleria Quinta Boti",
    "lat": -33.0457124,
    "lng": -71.44353
  },
  {
    "nombre": "Botillería Balmaceda ( Tía Lety)",
    "lat": -33.0375833,
    "lng": -71.4013176
  },
  {
    "nombre": "Donde El Nino (Frutas Y Verduras)",
    "lat": -33.0468997,
    "lng": -71.4381708
  },
  {
    "nombre": "Verdulería Santa Isabel",
    "lat": -33.0423537,
    "lng": -71.4307317
  },
  {
    "nombre": "Donde El Nino (Frutas Y Verduras)",
    "lat": -33.0469234,
    "lng": -71.4444737
  },
  {
    "nombre": "Verdulería la Huerta de Frutillar Belloto norte Quilpué",
    "lat": -33.0319045,
    "lng": -71.4040098
  },
  {
    "nombre": "Verduleria Luciano",
    "lat": -33.0464577,
    "lng": -71.4399227
  },
  {
    "nombre": "Mi caserito verdulería",
    "lat": -33.0454989,
    "lng": -71.4434615
  },
  {
    "nombre": "Verdulería Belloto 2000 FRUTAS Y VERDURAS SIGLO 2000",
    "lat": -33.04727,
    "lng": -71.41339
  },
  {
    "nombre": "Delivery Mama Zoila",
    "lat": -33.047074,
    "lng": -71.429118
  },
  {
    "nombre": "Verdulería MYV",
    "lat": -33.0382508,
    "lng": -71.4051737
  },
  {
    "nombre": "Verduleria Sandra",
    "lat": -33.0390389,
    "lng": -71.4410554
  },
  {
    "nombre": "micaserito",
    "lat": -33.0420917,
    "lng": -71.4634057
  },
  {
    "nombre": "Paltas Jano",
    "lat": -33.0781615,
    "lng": -71.3995816
  },
  {
    "nombre": "Emporio La Veguita",
    "lat": -33.0425472,
    "lng": -71.4171144
  },
  {
    "nombre": "EL HUERTO DE LA Titi",
    "lat": -33.0532557,
    "lng": -71.4460306
  },
  {
    "nombre": "Emporio Alegre",
    "lat": -33.0660433,
    "lng": -71.4224409
  },
  {
    "nombre": "Vegetal Food",
    "lat": -33.0472506,
    "lng": -71.3654202
  },
  {
    "nombre": "Doña Carne Quilpué",
    "lat": -33.046036,
    "lng": -71.4431433
  },
  {
    "nombre": "Distribuidora Austral Quilpue",
    "lat": -33.0466329,
    "lng": -71.4393195
  },
  {
    "nombre": "Carnes Don Pedro Sucursal Centro Quilpué",
    "lat": -33.0471336,
    "lng": -71.4418119
  },
  {
    "nombre": "Carnes Don Pedro Sucursal San Martín Hospital",
    "lat": -33.0504064,
    "lng": -71.4328605
  },
  {
    "nombre": "Carnes Santa Ana S.A",
    "lat": -33.0467211,
    "lng": -71.444005
  },
  {
    "nombre": "Carnes Don Pedro Sucursal San Martin 296",
    "lat": -33.0415579,
    "lng": -71.4314481
  },
  {
    "nombre": "El Centauro",
    "lat": -33.0476632,
    "lng": -71.4427359
  },
  {
    "nombre": "Fiambreria alemana kampf y Saez",
    "lat": -33.0464859,
    "lng": -71.4426815
  },
  {
    "nombre": "El Carnicero Quilpué",
    "lat": -33.0466769,
    "lng": -71.4438834
  },
  {
    "nombre": "El Outlet de la Carne",
    "lat": -33.0424118,
    "lng": -71.4170227
  },
  {
    "nombre": "Carniceria Las Rosas",
    "lat": -33.0573632,
    "lng": -71.4242661
  },
  {
    "nombre": "Frigorificio de Osorno .S.A Sala de ventas Quilpué",
    "lat": -37.0608324,
    "lng": -88.1804
  },
  {
    "nombre": "Carnes Don Pedro Sucursal Villa Olimpica",
    "lat": -33.0555913,
    "lng": -71.460108
  },
  {
    "nombre": "Carnes Don Pedro Sucursal Los Pinos",
    "lat": -33.069242,
    "lng": -71.4225735
  },
  {
    "nombre": "Carniceria Genovesa",
    "lat": -33.0457727,
    "lng": -71.4431499
  },
  {
    "nombre": "Severino Diaz Nicolas Orlando",
    "lat": -33.0509454,
    "lng": -71.4510877
  },
  {
    "nombre": "Carnicería Rolando",
    "lat": -33.0493898,
    "lng": -71.4326163
  },
  {
    "nombre": "Pedro Montt",
    "lat": -33.0509123,
    "lng": -71.4501364
  },
  {
    "nombre": "Carnes Don Pedro Sucursal Belloto Sur",
    "lat": -33.0586952,
    "lng": -71.4052356
  },
  {
    "nombre": "Carniceria Centenario",
    "lat": -33.047863,
    "lng": -71.4149563
  },
  {
    "nombre": "Carnes Don Pedro Sucursal Belloto Norte",
    "lat": -33.0372649,
    "lng": -71.4056134
  },
  {
    "nombre": "CARNICERIA Don Nico",
    "lat": -33.0509402,
    "lng": -71.4510734
  },
  {
    "nombre": "CARNES DON NICO",
    "lat": -33.0493718,
    "lng": -71.4325048
  },
  {
    "nombre": "Corralosorno Quilpué",
    "lat": -33.0385703,
    "lng": -71.422028
  },
  {
    "nombre": "El Outlet de la Carne Express",
    "lat": -33.0421097,
    "lng": -71.4633807
  },
  {
    "nombre": "Caca Center",
    "lat": -33.0520687,
    "lng": -71.4508789
  },
  {
    "nombre": "Carniceria lo Vasquez",
    "lat": -33.0581906,
    "lng": -71.4251652
  },
  {
    "nombre": "Carnes France Lira Jousse E.I.R.L.",
    "lat": -33.0469867,
    "lng": -71.4489194
  },
  {
    "nombre": "Jose Linares y Compañía",
    "lat": -33.0470394,
    "lng": -71.4504273
  },
  {
    "nombre": "Carnicerías DOÑA LOLA",
    "lat": -33.0393086,
    "lng": -71.4413274
  },
  {
    "nombre": "Procesadora Y Distribuidora De Productos Carneos R U Ltda",
    "lat": -33.0547007,
    "lng": -71.4282221
  },
  {
    "nombre": "Provisiones Daglas",
    "lat": -33.0504064,
    "lng": -71.4328605
  },
  {
    "nombre": "Carniceria Prime Beef",
    "lat": -33.040993,
    "lng": -71.4721298
  },
  {
    "nombre": "Carniceria Valencia",
    "lat": -33.0440921,
    "lng": -71.4612251
  },
  {
    "nombre": "Carnes Dona Luisa",
    "lat": -33.0464611,
    "lng": -71.4064632
  },
  {
    "nombre": "EX CASA CHURRASCO",
    "lat": -33.0561243,
    "lng": -71.4295465
  },
  {
    "nombre": "Frigosorno",
    "lat": -33.0386939,
    "lng": -71.4217352
  },
  {
    "nombre": "Sra Maria, carnicería y Minimarket",
    "lat": -33.0318461,
    "lng": -71.404031
  },
  {
    "nombre": "La Asaderia",
    "lat": -33.059614,
    "lng": -71.4257671
  },
  {
    "nombre": "Carnes Don Pedro Sucursal Ojos de Agua",
    "lat": -33.0561653,
    "lng": -71.3994405
  },
  {
    "nombre": "Jose Linares y Compañía",
    "lat": -33.0470394,
    "lng": -71.4504273
  },
  {
    "nombre": "La Asaderia",
    "lat": -33.059614,
    "lng": -71.4257671
  },
  {
    "nombre": "Comercial el Renacimiento",
    "lat": -33.0360491,
    "lng": -71.4842899
  },
  {
    "nombre": "Carnes Santa Ana S A",
    "lat": -33.053867,
    "lng": -71.4193159
  },
  {
    "nombre": "Caca Center",
    "lat": -33.0520687,
    "lng": -71.4508789
  },
  {
    "nombre": "CARNICERIA ARGENTINA",
    "lat": -33.0418738,
    "lng": -71.4726718
  },
  {
    "nombre": "Carnes France Lira Jousse E.I.R.L.",
    "lat": -33.0469867,
    "lng": -71.4489194
  },
  {
    "nombre": "IL CAPO DI TUTTI QUILPUE",
    "lat": -33.0482566,
    "lng": -71.4495286
  },
  {
    "nombre": "El Trébol Quilpué",
    "lat": -33.050095,
    "lng": -71.4438161
  },
  {
    "nombre": "Masapiedra Pizzeria",
    "lat": -33.0474787,
    "lng": -71.4479967
  },
  {
    "nombre": "Pizza Pasta",
    "lat": -33.0474327,
    "lng": -71.4411589
  },
  {
    "nombre": "Melt Pizzas",
    "lat": -33.0425216,
    "lng": -71.4378357
  },
  {
    "nombre": "Il Pizzaiolo",
    "lat": -33.046444,
    "lng": -71.4073006
  },
  {
    "nombre": "Da Salvatore",
    "lat": -33.0363137,
    "lng": -71.4282283
  },
  {
    "nombre": "GROSSOPIZZA",
    "lat": -33.0476403,
    "lng": -71.4319102
  },
  {
    "nombre": "Papa Johns Pizza",
    "lat": -33.0432412,
    "lng": -71.4345054
  },
  {
    "nombre": "Fratelli e Amici",
    "lat": -33.0474226,
    "lng": -71.4482367
  },
  {
    "nombre": "Sabor Ibérico Quilpué",
    "lat": -33.0465171,
    "lng": -71.4321612
  },
  {
    "nombre": "Sabor Rústico Cafetería - Pizzería",
    "lat": -33.0472116,
    "lng": -71.4156766
  },
  {
    "nombre": "Pizzas Carlitos Lechuga",
    "lat": -33.0546897,
    "lng": -71.417963
  },
  {
    "nombre": "Domino's Pizza",
    "lat": -33.0424811,
    "lng": -71.4377971
  },
  {
    "nombre": "PIZZERÍA PATIO CARREÑO",
    "lat": -33.0445668,
    "lng": -71.4055108
  },
  {
    "nombre": "27F Chilean Way",
    "lat": -33.0472899,
    "lng": -71.4452817
  },
  {
    "nombre": "Saulepizzas",
    "lat": -33.0474381,
    "lng": -71.4330138
  },
  {
    "nombre": "Mokavad Deli Mediterraneo",
    "lat": -33.0428033,
    "lng": -71.4331228
  },
  {
    "nombre": "Restaurant Tacora",
    "lat": -33.0480832,
    "lng": -71.4426561
  },
  {
    "nombre": "Restaurant La Piedra Lanceta",
    "lat": -33.0471685,
    "lng": -71.4384155
  },
  {
    "nombre": "El Pollón",
    "lat": -33.0553747,
    "lng": -71.4265757
  },
  {
    "nombre": "El pollo macanudo",
    "lat": -33.0523414,
    "lng": -71.4456359
  },
  {
    "nombre": "El Rey Del Pollo a las Brasas",
    "lat": -33.0577731,
    "lng": -71.4287917
  },
  {
    "nombre": "El Pollo Sabrosón",
    "lat": -33.0460291,
    "lng": -71.4066815
  },
  {
    "nombre": "Pollo Campo Quilpué",
    "lat": -33.047316,
    "lng": -71.4417493
  },
  {
    "nombre": "Punto Asador",
    "lat": -33.0462805,
    "lng": -71.4397461
  },
  {
    "nombre": "Papa pollo - Quilpué",
    "lat": -33.0472463,
    "lng": -71.4118003
  },
  {
    "nombre": "Nuevo Rico Pollo",
    "lat": -33.0481601,
    "lng": -71.4446079
  },
  {
    "nombre": "Tarragona Portal El Belloto",
    "lat": -33.0451752,
    "lng": -71.4213787
  },
  {
    "nombre": "Panipollo",
    "lat": -33.0615448,
    "lng": -71.4245988
  },
  {
    "nombre": "Pollos a las brasas sábados y domingos para llevar",
    "lat": -33.0392196,
    "lng": -71.4036132
  },
  {
    "nombre": "Brasas Del Sur",
    "lat": -33.0466066,
    "lng": -71.4462313
  },
  {
    "nombre": "Sazón",
    "lat": -33.0485613,
    "lng": -71.444132
  },
  {
    "nombre": "LaPappa-Delivery Quilpúe",
    "lat": -33.0543186,
    "lng": -71.4543848
  },
  {
    "nombre": "Brasas",
    "lat": -33.0556244,
    "lng": -71.4267625
  },
  {
    "nombre": "Lo Nuestro Restaurant",
    "lat": -33.0483079,
    "lng": -71.4292905
  },
  {
    "nombre": "Mis 4 Pollos",
    "lat": -33.045009,
    "lng": -71.3867173
  },
  {
    "nombre": "Ahumados Isla Bella",
    "lat": -33.0481517,
    "lng": -71.4294174
  },
  {
    "nombre": "Roasty",
    "lat": -33.0585064,
    "lng": -71.4266571
  },
  {
    "nombre": "Tarragona Lider El Belloto",
    "lat": -33.0447784,
    "lng": -71.4184855
  },
  {
    "nombre": "Pasteleria Stuttgart",
    "lat": -33.045982,
    "lng": -71.4413145
  },
  {
    "nombre": "Pastelería KETO sin azúcar para diabéticos y sin trigo MACARONS Quilpué",
    "lat": -33.048346,
    "lng": -71.4292981
  },
  {
    "nombre": "Pastelería y Panadería Paraíso",
    "lat": -33.0525414,
    "lng": -71.4312119
  },
  {
    "nombre": "Panaderia Central",
    "lat": -33.04674,
    "lng": -71.4423887
  },
  {
    "nombre": "Los Alpes Pasteleria",
    "lat": -33.0463043,
    "lng": -71.4395109
  },
  {
    "nombre": "Pasteleria Katalinko",
    "lat": -33.0469748,
    "lng": -71.4394705
  },
  {
    "nombre": "Restaurant & Cafe Alaral",
    "lat": -33.0466341,
    "lng": -71.4344097
  },
  {
    "nombre": "Pastelería Mazapan",
    "lat": -33.045606,
    "lng": -71.4437236
  },
  {
    "nombre": "La Dulcería",
    "lat": -33.0429337,
    "lng": -71.4331925
  },
  {
    "nombre": "Vie VELVET pastelería",
    "lat": -33.0474381,
    "lng": -71.4330138
  },
  {
    "nombre": "Praggi Pastelería",
    "lat": -33.0487734,
    "lng": -71.43827
  },
  {
    "nombre": "Pastelería Maxi´s Cakes Quilpué",
    "lat": -33.0482676,
    "lng": -71.4613773
  },
  {
    "nombre": "MIAMI FOOD MARKET",
    "lat": -33.0591901,
    "lng": -71.43689
  },
  {
    "nombre": "Forno",
    "lat": -33.0479624,
    "lng": -71.4444655
  },
  {
    "nombre": "panaderia pedro montt",
    "lat": -33.0507299,
    "lng": -71.4513376
  },
  {
    "nombre": "Dist. Confites Alijor de papulandia",
    "lat": -33.0467274,
    "lng": -71.4379839
  },
  {
    "nombre": "Coccolino Quilpué",
    "lat": -33.04247,
    "lng": -71.4377518
  },
  {
    "nombre": "El Palacio del Confite",
    "lat": -33.0479566,
    "lng": -71.4444006
  },
  {
    "nombre": "VELVET Pastelería",
    "lat": -33.0478621,
    "lng": -71.4299145
  },
  {
    "nombre": "Enchurrado, Churros & Brunch",
    "lat": -33.0465,
    "lng": -71.4366299
  },
  {
    "nombre": "La Brioche Bakery & Café",
    "lat": -33.01041,
    "lng": -71.54859
  },
  {
    "nombre": "Panaderia Y Pasteleria El Charly",
    "lat": -33.0557304,
    "lng": -71.4602377
  },
  {
    "nombre": "Panadería y Pastelería Pucón",
    "lat": -33.0584716,
    "lng": -71.4265328
  },
  {
    "nombre": "Pan y Pan",
    "lat": -33.0464777,
    "lng": -71.4437412
  },
  {
    "nombre": "Delistore LTDA. Repostería Gastronomía Delicatessen",
    "lat": -33.0465915,
    "lng": -71.4443379
  },
  {
    "nombre": "Pastelería Libre",
    "lat": -33.0518034,
    "lng": -71.4430554
  },
  {
    "nombre": "Todoreposteria Bruna Schiller",
    "lat": -33.0465626,
    "lng": -71.4431357
  },
  {
    "nombre": "Panadería y pastelería Mana",
    "lat": -33.0494239,
    "lng": -71.4087157
  },
  {
    "nombre": "Panaderia Las Delicias",
    "lat": -33.0392031,
    "lng": -71.4409808
  },
  {
    "nombre": "Miami Food Market 2",
    "lat": -33.0487258,
    "lng": -71.4357806
  },
  {
    "nombre": "El Negro Bueno",
    "lat": -33.0379216,
    "lng": -71.4009662
  },
  {
    "nombre": "Restaurant Sol de Mar",
    "lat": -33.0455017,
    "lng": -71.4374084
  },
  {
    "nombre": "Peru Mar Quilpue",
    "lat": -33.0461547,
    "lng": -71.4402644
  },
  {
    "nombre": "Da Salvatore",
    "lat": -33.0363137,
    "lng": -71.4282283
  },
  {
    "nombre": "Restaurant EL FOGÓN DE LOS DESEOS",
    "lat": -33.0452567,
    "lng": -71.4146661
  },
  {
    "nombre": "La Quinta Pata al Gato",
    "lat": -33.0472297,
    "lng": -71.4362716
  },
  {
    "nombre": "Lo Nuestro Restaurant",
    "lat": -33.0483079,
    "lng": -71.4292905
  },
  {
    "nombre": "Mambar Restaurant & Bar",
    "lat": -33.0505014,
    "lng": -71.4416942
  },
  {
    "nombre": "Brasas Del Sur",
    "lat": -33.0466066,
    "lng": -71.4462313
  },
  {
    "nombre": "El Clandestino - Cruzando Fronteras",
    "lat": -33.0481199,
    "lng": -71.4372081
  },
  {
    "nombre": "Restaurant Casona de Quilpue",
    "lat": -33.04339,
    "lng": -71.45169
  },
  {
    "nombre": "La Estación Limeña",
    "lat": -33.0457574,
    "lng": -71.445458
  },
  {
    "nombre": "Pinto Bello Restobar",
    "lat": -33.0466886,
    "lng": -71.445476
  },
  {
    "nombre": "La Cocineria de Illescas",
    "lat": -33.0459059,
    "lng": -71.4396029
  },
  {
    "nombre": "Sol Norteño",
    "lat": -33.0464271,
    "lng": -71.4468893
  },
  {
    "nombre": "Patio 511",
    "lat": -33.0362484,
    "lng": -71.4276891
  },
  {
    "nombre": "Bellavista Deli",
    "lat": -33.0458313,
    "lng": -71.4395928
  },
  {
    "nombre": "Novoa Restaurant",
    "lat": -33.0492955,
    "lng": -71.4360513
  },
  {
    "nombre": "Raíces Del Sol",
    "lat": -33.0494197,
    "lng": -71.4402505
  },
  {
    "nombre": "Fratelli e Amici",
    "lat": -33.0474226,
    "lng": -71.4482367
  },
  {
    "nombre": "KARACHI SPICE Restaurante Pakistani",
    "lat": -33.0464554,
    "lng": -71.4372024
  },
  {
    "nombre": "Only Sushi",
    "lat": -33.0466538,
    "lng": -71.445645
  },
  {
    "nombre": "La Calma by Fredes",
    "lat": -33.3998344,
    "lng": -70.5982665
  },
  {
    "nombre": "Pastrami Nostro",
    "lat": -33.0473137,
    "lng": -71.4485647
  },
  {
    "nombre": "Restaurant Pau San",
    "lat": -33.0465238,
    "lng": -71.4394204
  },
  {
    "nombre": "SANTOGELATO",
    "lat": -33.0470443,
    "lng": -71.441996
  },
  {
    "nombre": "El Molino Cafetería y Heladería",
    "lat": -33.0476535,
    "lng": -71.4458375
  },
  {
    "nombre": "Timbao Heladería",
    "lat": -33.0450736,
    "lng": -71.4222368
  },
  {
    "nombre": "Grido Los Pinos",
    "lat": -33.0711344,
    "lng": -71.4211357
  },
  {
    "nombre": "Heladería Il' Cremosso",
    "lat": -33.0467098,
    "lng": -71.4071446
  },
  {
    "nombre": "Yogen Früz",
    "lat": -33.0455882,
    "lng": -71.4208173
  },
  {
    "nombre": "Grido helado",
    "lat": -33.0442533,
    "lng": -71.419639
  },
  {
    "nombre": "Happy Days Waffles",
    "lat": -33.048338,
    "lng": -71.442529
  },
  {
    "nombre": "Encantos de Colliguay: Helados artesanales y venta de plantas ornamentales.",
    "lat": -33.2013498,
    "lng": -71.0896763
  },
  {
    "nombre": "Delicias",
    "lat": -33.0464743,
    "lng": -71.4048233
  },
  {
    "nombre": "Heladeria del sol",
    "lat": -33.0456025,
    "lng": -71.4185143
  },
  {
    "nombre": "By Walthari",
    "lat": -33.0388189,
    "lng": -71.3783135
  },
  {
    "nombre": "Grido Helado",
    "lat": -33.0470621,
    "lng": -71.4411942
  },
  {
    "nombre": "Minimarket Larense",
    "lat": -33.0476565,
    "lng": -71.4321889
  },
  {
    "nombre": "MiniMarket El Pelao",
    "lat": -33.0498,
    "lng": -71.4564899
  },
  {
    "nombre": "Minimarket Donde German",
    "lat": -33.0504337,
    "lng": -71.4448481
  },
  {
    "nombre": "Minimarket Y Botilleria \"Donde Rojito\"",
    "lat": -33.0363271,
    "lng": -71.4084855
  },
  {
    "nombre": "Minimarket \"SINGAPUR\"",
    "lat": -33.0527128,
    "lng": -71.4312884
  },
  {
    "nombre": "Minimarket El Mumo",
    "lat": -33.0531249,
    "lng": -71.458427
  },
  {
    "nombre": "Minimarket ROSENET",
    "lat": -33.0318136,
    "lng": -71.4068486
  },
  {
    "nombre": "Punto market",
    "lat": -33.0666746,
    "lng": -71.4175746
  },
  {
    "nombre": "Minimarket El Punto",
    "lat": -33.0573133,
    "lng": -71.405084
  },
  {
    "nombre": "Minimarket Hualpen",
    "lat": -33.0463508,
    "lng": -71.409064
  },
  {
    "nombre": "Provimarket",
    "lat": -33.0501139,
    "lng": -71.4327323
  },
  {
    "nombre": "M&M MiniMarket",
    "lat": -33.0393851,
    "lng": -71.4285017
  },
  {
    "nombre": "Provimarket",
    "lat": -33.0474732,
    "lng": -71.4444427
  },
  {
    "nombre": "Minimarket Eloy Botilleria",
    "lat": -33.0501106,
    "lng": -71.4015556
  },
  {
    "nombre": "Minimarket La Villa",
    "lat": -33.0728738,
    "lng": -71.4231337
  },
  {
    "nombre": "Minimarket los mendoza",
    "lat": -33.031749,
    "lng": -71.4038828
  },
  {
    "nombre": "Provisiones \"El Retiro\"",
    "lat": -33.039004,
    "lng": -71.44113
  },
  {
    "nombre": "Minimarket Ideal",
    "lat": -33.0492385,
    "lng": -71.4225715
  },
  {
    "nombre": "Minimarket Colliguay",
    "lat": -33.1503515,
    "lng": -71.3387742
  },
  {
    "nombre": "MINIMARKET SHALOM",
    "lat": -33.0510077,
    "lng": -71.4065153
  },
  {
    "nombre": "Empanadas Quilpue",
    "lat": -33.0478185,
    "lng": -71.4453249
  },
  {
    "nombre": "Las mil y una empanadas",
    "lat": -33.0555379,
    "lng": -71.4264415
  },
  {
    "nombre": "Panaderia Central",
    "lat": -33.04674,
    "lng": -71.4423887
  },
  {
    "nombre": "Sabores De Horcón (Empanadas De Queso Fritas Variedades)",
    "lat": -33.0656845,
    "lng": -71.4225275
  },
  {
    "nombre": "Panadería Centenario",
    "lat": -33.0477221,
    "lng": -71.4149218
  },
  {
    "nombre": "Pan Ceres",
    "lat": -33.04563,
    "lng": -71.43374
  },
  {
    "nombre": "Pastelería y Panadería Paraíso",
    "lat": -33.0525414,
    "lng": -71.4312119
  },
  {
    "nombre": "Panadería Olca",
    "lat": -33.0482897,
    "lng": -71.4094157
  },
  {
    "nombre": "Fabrica De Masas Dulcemar",
    "lat": -33.0546004,
    "lng": -71.4085764
  },
  {
    "nombre": "Panadería Brasil",
    "lat": -33.0381564,
    "lng": -71.4449855
  },
  {
    "nombre": "Los Alpes Pasteleria",
    "lat": -33.0463043,
    "lng": -71.4395109
  },
  {
    "nombre": "Pasteleria Katalinko",
    "lat": -33.0469748,
    "lng": -71.4394705
  },
  {
    "nombre": "Praggi Pastelería",
    "lat": -33.0487734,
    "lng": -71.43827
  },
  {
    "nombre": "PEQUENA VENEZIA",
    "lat": -33.0469844,
    "lng": -71.4361894
  },
  {
    "nombre": "Panaderia Quilpue",
    "lat": -33.04752,
    "lng": -71.4304481
  },
  {
    "nombre": "Empanadas ricas",
    "lat": -33.038218,
    "lng": -71.4020688
  },
  {
    "nombre": "Q’ Depinga Quilpué",
    "lat": -33.0709129,
    "lng": -71.4105546
  },
  {
    "nombre": "Pastelería libre",
    "lat": -33.0817857,
    "lng": -71.3259243
  },
  {
    "nombre": "Bambú Panadería",
    "lat": -33.0471801,
    "lng": -71.435606
  },
  {
    "nombre": "Empanadería Los Serrano",
    "lat": -33.1177352,
    "lng": -71.5789727
  },
  {
    "nombre": "Panadería y pastelería Masitas de Oro",
    "lat": -33.0667027,
    "lng": -71.4389504
  },
  {
    "nombre": "Bambú Panadería",
    "lat": -33.0471801,
    "lng": -71.435606
  },
  {
    "nombre": "Restaurant Fu San",
    "lat": -33.0465621,
    "lng": -71.44001
  },
  {
    "nombre": "Restaurant Yi Hao",
    "lat": -33.0710479,
    "lng": -71.4238606
  },
  {
    "nombre": "Restaurant Pau San",
    "lat": -33.0465238,
    "lng": -71.4394204
  },
  {
    "nombre": "Bongo Wok",
    "lat": -33.0682862,
    "lng": -71.4238431
  },
  {
    "nombre": "Zhili Fusión Oriental",
    "lat": -33.0497249,
    "lng": -71.4031701
  },
  {
    "nombre": "Sazón",
    "lat": -33.0485613,
    "lng": -71.444132
  },
  {
    "nombre": "Sandwicheria Buen Gusto",
    "lat": -33.0480549,
    "lng": -71.4455821
  },
  {
    "nombre": "Completos - Comida Rápida",
    "lat": -33.0399028,
    "lng": -71.4077485
  },
  {
    "nombre": "Burger King Quilpué",
    "lat": -33.048338,
    "lng": -71.442529
  },
  {
    "nombre": "Parada Custom",
    "lat": -33.0430267,
    "lng": -71.4663943
  },
  {
    "nombre": "Food go Delivery",
    "lat": -33.0511055,
    "lng": -71.4016446
  },
  {
    "nombre": "Subway",
    "lat": -33.0485998,
    "lng": -71.4356646
  },
  {
    "nombre": "Gorilas",
    "lat": -33.042553,
    "lng": -71.4378338
  },
  {
    "nombre": "Toros Food",
    "lat": -33.0481582,
    "lng": -71.4294164
  },
  {
    "nombre": "Dream Burger",
    "lat": -33.0481517,
    "lng": -71.4294174
  },
  {
    "nombre": "Santo Bajón",
    "lat": -33.0516478,
    "lng": -71.4329432
  },
  {
    "nombre": "Donde la Veci",
    "lat": -33.0445369,
    "lng": -71.437601
  },
  {
    "nombre": "Sandwicheria De Calle",
    "lat": -33.0595191,
    "lng": -71.4052162
  },
  {
    "nombre": "Sangucheria Fenix",
    "lat": -33.0478912,
    "lng": -71.4452172
  },
  {
    "nombre": "Manavai Sandwich",
    "lat": -33.0462478,
    "lng": -71.3985521
  },
  {
    "nombre": "Doggis",
    "lat": -33.0455725,
    "lng": -71.4202959
  },
  {
    "nombre": "La Picá del Canalla (Sanguchería)",
    "lat": -33.0652934,
    "lng": -71.4222519
  },
  {
    "nombre": "Queen burger",
    "lat": -33.0474923,
    "lng": -71.4326992
  },
  {
    "nombre": "Tommy Beans Quilpue",
    "lat": -33.048338,
    "lng": -71.442529
  },
  {
    "nombre": "Pizza Pasta",
    "lat": -33.0474327,
    "lng": -71.4411589
  },
  {
    "nombre": "Comida Casera Picada",
    "lat": -33.0573545,
    "lng": -71.4216918
  },
  {
    "nombre": "Restaurant Casona de Quilpue",
    "lat": -33.04339,
    "lng": -71.45169
  },
  {
    "nombre": "La Cocineria de Illescas",
    "lat": -33.0459059,
    "lng": -71.4396029
  },
  {
    "nombre": "Bellavista Deli",
    "lat": -33.0458313,
    "lng": -71.4395928
  },
  {
    "nombre": "Sikdorak quilpue",
    "lat": -33.0475323,
    "lng": -71.4324357
  },
  {
    "nombre": "Sazón",
    "lat": -33.0485613,
    "lng": -71.444132
  },
  {
    "nombre": "Lilium restaurant",
    "lat": -33.04592,
    "lng": -71.43957
  },
  {
    "nombre": "Restaurant Sol de Mar",
    "lat": -33.0455017,
    "lng": -71.4374084
  },
  {
    "nombre": "Brasas Del Sur",
    "lat": -33.0466066,
    "lng": -71.4462313
  },
  {
    "nombre": "Lo Nuestro Restaurant",
    "lat": -33.0483079,
    "lng": -71.4292905
  },
  {
    "nombre": "Restaurant Tacora",
    "lat": -33.0480832,
    "lng": -71.4426561
  },
  {
    "nombre": "Da Salvatore",
    "lat": -33.0363137,
    "lng": -71.4282283
  },
  {
    "nombre": "Los Tios",
    "lat": -33.048331,
    "lng": -71.4435078
  },
  {
    "nombre": "La Cocina De JP",
    "lat": -33.0461343,
    "lng": -71.4104768
  },
  {
    "nombre": "La Quinta Pata al Gato",
    "lat": -33.0472297,
    "lng": -71.4362716
  },
  {
    "nombre": "Donde Los Tios Colaciones",
    "lat": -33.044082,
    "lng": -71.4612451
  },
  {
    "nombre": "Restaurant EL FOGÓN DE LOS DESEOS",
    "lat": -33.0452567,
    "lng": -71.4146661
  },
  {
    "nombre": "SushiWeb Quilpué",
    "lat": -33.0441634,
    "lng": -71.4331138
  },
  {
    "nombre": "KASA DEL KAPRICHO",
    "lat": -33.0468897,
    "lng": -71.4303306
  },
  {
    "nombre": "Freak and Chips",
    "lat": -33.0470649,
    "lng": -71.407866
  },
  {
    "nombre": "Sous Sol Restaurante",
    "lat": -33.0461785,
    "lng": -71.4460963
  },
  {
    "nombre": "La Estación Limeña",
    "lat": -33.0457574,
    "lng": -71.445458
  },
  {
    "nombre": "Restaurant Donde Anibal",
    "lat": -33.0434303,
    "lng": -71.4037889
  },
  {
    "nombre": "BAR RESTAURANT \"EL CRIOLLO\" LA PICA DEL HUASO \"TAVO\"",
    "lat": -33.0479846,
    "lng": -71.4440983
  },
  {
    "nombre": "Sol Norteño",
    "lat": -33.0464271,
    "lng": -71.4468893
  },
  {
    "nombre": "SushiWeb Quilpué",
    "lat": -33.044163,
    "lng": -71.433114
  },
  {
    "nombre": "Kahlo Takos",
    "lat": -33.048364,
    "lng": -71.4165385
  },
  {
    "nombre": "Restaurant Tacora",
    "lat": -33.0480832,
    "lng": -71.4426561
  },
  {
    "nombre": "La Tatemada",
    "lat": -33.0459723,
    "lng": -71.4396849
  },
  {
    "nombre": "Restaurant EL FOGÓN DE LOS DESEOS",
    "lat": -33.0452567,
    "lng": -71.4146661
  },
  {
    "nombre": "Viva Mexico restobar",
    "lat": -33.0460962,
    "lng": -71.4407855
  },
  {
    "nombre": "Sol Norteño",
    "lat": -33.0464271,
    "lng": -71.4468893
  },
  {
    "nombre": "La Estación Limeña",
    "lat": -33.0457574,
    "lng": -71.445458
  },
  {
    "nombre": "Sol Limeño",
    "lat": -33.047701,
    "lng": -71.448257
  },
  {
    "nombre": "Lo Nuestro Restaurant",
    "lat": -33.0483079,
    "lng": -71.4292905
  },
  {
    "nombre": "Peru Mar Quilpue",
    "lat": -33.0461547,
    "lng": -71.4402644
  },
  {
    "nombre": "El Clandestino - Cruzando Fronteras",
    "lat": -33.0481199,
    "lng": -71.4372081
  },
  {
    "nombre": "Delicias Fusión",
    "lat": -33.0461194,
    "lng": -71.4401208
  },
  {
    "nombre": "Rincón Peruano",
    "lat": -33.0445213,
    "lng": -71.383049
  },
  {
    "nombre": "Encanto de mi tierra",
    "lat": -33.04576,
    "lng": -71.44555
  },
  {
    "nombre": "Pollo Campo Quilpué",
    "lat": -33.047316,
    "lng": -71.4417493
  },
  {
    "nombre": "El Pollón",
    "lat": -33.0553747,
    "lng": -71.4265757
  },
  {
    "nombre": "Perú Mar Villa Alemana",
    "lat": -33.0440851,
    "lng": -71.3765948
  },
  {
    "nombre": "Sous Sol Restaurante",
    "lat": -33.0461785,
    "lng": -71.4460963
  },
  {
    "nombre": "Fusionperuana _villaalemana",
    "lat": -33.0445557,
    "lng": -71.3781096
  },
  {
    "nombre": "El Rey Del Pollo a las Brasas",
    "lat": -33.0577731,
    "lng": -71.4287917
  },
  {
    "nombre": "Taypa Restaurante",
    "lat": -33.0442244,
    "lng": -71.3769287
  },
  {
    "nombre": "Cevicheria Calderina",
    "lat": -33.045787,
    "lng": -71.440129
  },
  {
    "nombre": "Tataki Sushi y Ramen",
    "lat": -33.048158,
    "lng": -71.4294739
  },
  {
    "nombre": "SushiWeb Quilpué",
    "lat": -33.0441634,
    "lng": -71.4331138
  },
  {
    "nombre": "Origami Sushi",
    "lat": -33.0459734,
    "lng": -71.445472
  },
  {
    "nombre": "SASHIMI SUSHI",
    "lat": -33.054901,
    "lng": -71.426324
  },
  {
    "nombre": "Wakame Sushi Quilpué",
    "lat": -33.0484465,
    "lng": -71.4305459
  },
  {
    "nombre": "Kaansushi",
    "lat": -33.0470859,
    "lng": -71.4369045
  },
  {
    "nombre": "ROMYROLLSushi",
    "lat": -33.056279,
    "lng": -71.4613541
  },
  {
    "nombre": "Kami sushi Quilpué",
    "lat": -33.0466131,
    "lng": -71.4090235
  },
  {
    "nombre": "Sushi Sun",
    "lat": -33.0471974,
    "lng": -71.4380761
  },
  {
    "nombre": "Sushimai Delivery",
    "lat": -33.0448329,
    "lng": -71.4382157
  },
  {
    "nombre": "Jiren Sushi Quilpué",
    "lat": -33.0471038,
    "lng": -71.436029
  },
  {
    "nombre": "Delicia Divina Quilpue",
    "lat": -33.0476709,
    "lng": -71.4452956
  },
  {
    "nombre": "Only Sushi",
    "lat": -33.0466538,
    "lng": -71.445645
  },
  {
    "nombre": "Chizu Rolls Delivery Sushi",
    "lat": -33.0474381,
    "lng": -71.4330138
  },
  {
    "nombre": "Sushi Ride",
    "lat": -33.040788,
    "lng": -71.4402824
  },
  {
    "nombre": "MICHI SUSHI",
    "lat": -33.0382365,
    "lng": -71.4062073
  },
  {
    "nombre": "sushisimo",
    "lat": -33.0380097,
    "lng": -71.4026155
  },
  {
    "nombre": "Sikdorak quilpue",
    "lat": -33.0475323,
    "lng": -71.4324357
  },
  {
    "nombre": "Novoa Restaurant",
    "lat": -33.0492955,
    "lng": -71.4360513
  },
  {
    "nombre": "Sushi Panda",
    "lat": -33.0550585,
    "lng": -71.4368713
  },
  {
    "nombre": "Sikdorak quilpue",
    "lat": -33.0475323,
    "lng": -71.4324357
  },
  {
    "nombre": "KARACHI SPICE Restaurante Pakistani",
    "lat": -33.0464554,
    "lng": -71.4372024
  },
  {
    "nombre": "Sushi Ride",
    "lat": -33.040788,
    "lng": -71.4402824
  },
  {
    "nombre": "Sushi Weekend Quilpué",
    "lat": -33.0395604,
    "lng": -71.4271689
  },
  {
    "nombre": "Bongo Wok",
    "lat": -33.0682862,
    "lng": -71.4238431
  },
  {
    "nombre": "Lo Nuestro Restaurant",
    "lat": -33.0483079,
    "lng": -71.4292905
  },
  {
    "nombre": "La Quinta Pata al Gato",
    "lat": -33.0472297,
    "lng": -71.4362716
  },
  {
    "nombre": "Brasas Del Sur",
    "lat": -33.0466066,
    "lng": -71.4462313
  },
  {
    "nombre": "Restaurant Pau San",
    "lat": -33.0465238,
    "lng": -71.4394204
  },
  {
    "nombre": "Only Sushi",
    "lat": -33.0466538,
    "lng": -71.445645
  },
  {
    "nombre": "La Tatemada",
    "lat": -33.0459723,
    "lng": -71.4396849
  },
  {
    "nombre": "SUSHITSU DELIVERY",
    "lat": -33.0409915,
    "lng": -71.4720866
  },
  {
    "nombre": "Q’ Depinga Quilpué",
    "lat": -33.0709129,
    "lng": -71.4105546
  },
  {
    "nombre": "Pastrami Nostro",
    "lat": -33.0473137,
    "lng": -71.4485647
  },
  {
    "nombre": "Wanpen Thaifood",
    "lat": -33.3554287,
    "lng": -71.6518339
  },
  {
    "nombre": "IL CAPO DI TUTTI QUILPUE",
    "lat": -33.0482566,
    "lng": -71.4495286
  },
  {
    "nombre": "Restaurant Casona de Quilpue",
    "lat": -33.04339,
    "lng": -71.45169
  },
  {
    "nombre": "Da Salvatore",
    "lat": -33.0363137,
    "lng": -71.4282283
  },
  {
    "nombre": "Kantu - Cocina Inadaptada",
    "lat": -33.4426619,
    "lng": -70.6264049
  },
  {
    "nombre": "Borgoño Sushi Thai Foods",
    "lat": -33.0252691,
    "lng": -71.555606
  },
  {
    "nombre": "Borgoño Sushi Thai Foods",
    "lat": -33.0252691,
    "lng": -71.555606
  },
  {
    "nombre": "Kao Oriental Food",
    "lat": -33.3601153,
    "lng": -70.5153961
  },
  {
    "nombre": "Strip Center IPA",
    "lat": -33.0482772,
    "lng": -71.4293308
  },
  {
    "nombre": "Sativo Wok & Bowls",
    "lat": -33.0166005,
    "lng": -71.5546073
  },
  {
    "nombre": "Fratelli e Amici",
    "lat": -33.0474226,
    "lng": -71.4482367
  },
  {
    "nombre": "Samsara",
    "lat": -33.0488407,
    "lng": -71.6223951
  },
  {
    "nombre": "Gurume",
    "lat": -33.039498,
    "lng": -71.376469
  },
  {
    "nombre": "K! bistró. Cocina y Coctelería Viajera",
    "lat": -33.0164387,
    "lng": -71.554252
  },
  {
    "nombre": "Get the Wok",
    "lat": -33.4201606,
    "lng": -70.605693
  },
  {
    "nombre": "IL CAPO DI TUTTI VILLA ALEMANA",
    "lat": -33.0453183,
    "lng": -71.3887968
  },
  {
    "nombre": "Kemo sushi",
    "lat": -33.0360098,
    "lng": -71.444535
  },
  {
    "nombre": "Ali Kebab Quilpue",
    "lat": -33.0460103,
    "lng": -71.4454596
  },
  {
    "nombre": "Mediterráneo Kebap",
    "lat": -33.0482028,
    "lng": -71.4369931
  },
  {
    "nombre": "Alialidelivery",
    "lat": -33.0464384,
    "lng": -71.407126
  },
  {
    "nombre": "KARACHI SPICE Restaurante Pakistani",
    "lat": -33.0464554,
    "lng": -71.4372024
  },
  {
    "nombre": "Mandala cafe shawarmas",
    "lat": -33.0466275,
    "lng": -71.4456665
  },
  {
    "nombre": "Pronti Pasta",
    "lat": -32.880343,
    "lng": -71.248167
  },
  {
    "nombre": "Da Salvatore",
    "lat": -33.0363137,
    "lng": -71.4282283
  },
  {
    "nombre": "IL CAPO DI TUTTI QUILPUE",
    "lat": -33.0482566,
    "lng": -71.4495286
  },
  {
    "nombre": "Il Pizzaiolo",
    "lat": -33.046444,
    "lng": -71.4073006
  },
  {
    "nombre": "Fratelli e Amici",
    "lat": -33.0474226,
    "lng": -71.4482367
  },
  {
    "nombre": "Pizza Pasta",
    "lat": -33.0474327,
    "lng": -71.4411589
  },
  {
    "nombre": "La Cocineria de Illescas",
    "lat": -33.0459059,
    "lng": -71.4396029
  },
  {
    "nombre": "GROSSOPIZZA",
    "lat": -33.0476403,
    "lng": -71.4319102
  },
  {
    "nombre": "Ristorante Stadio Italiano",
    "lat": -33.0431113,
    "lng": -71.3618985
  },
  {
    "nombre": "Vittoria Venturelli",
    "lat": -33.0346646,
    "lng": -71.4838363
  },
  {
    "nombre": "Don Vito e Zanoni",
    "lat": -33.0146026,
    "lng": -71.5541153
  },
  {
    "nombre": "Bellavista Deli",
    "lat": -33.0458313,
    "lng": -71.4395928
  },
  {
    "nombre": "Restaurant Vincenzo",
    "lat": -33.0476325,
    "lng": -71.3761254
  },
  {
    "nombre": "PIZZERÍA PATIO CARREÑO",
    "lat": -33.0445668,
    "lng": -71.4055108
  },
  {
    "nombre": "Lorenza Pizzeria & Trattoria",
    "lat": -33.0457555,
    "lng": -71.4457185
  },
  {
    "nombre": "OXXO",
    "lat": -33.448337,
    "lng": -70.576598
  },
  {
    "nombre": "Tao Veg - Casa matriz",
    "lat": -33.4754527,
    "lng": -70.6406052
  },
  {
    "nombre": "Sushiba Vegan Sushi",
    "lat": -33.0442673,
    "lng": -71.4460346
  },
  {
    "nombre": "Mandala cafe shawarmas",
    "lat": -33.0466275,
    "lng": -71.4456665
  },
  {
    "nombre": "Annette",
    "lat": -33.0502977,
    "lng": -71.4451196
  },
  {
    "nombre": "rincón vegano Quilpue",
    "lat": -33.0461512,
    "lng": -71.4518565
  },
  {
    "nombre": "Comida GOVEGAN",
    "lat": -33.4740795,
    "lng": -70.6405047
  },
  {
    "nombre": "Da Salvatore",
    "lat": -33.0363137,
    "lng": -71.4282283
  },
  {
    "nombre": "Vegan Place",
    "lat": -33.0212682,
    "lng": -71.557736
  },
  {
    "nombre": "Kigo Vegan",
    "lat": -33.4533509,
    "lng": -70.6175634
  },
  {
    "nombre": "Vegan Bunker",
    "lat": -33.4476161,
    "lng": -70.6232532
  },
  {
    "nombre": "Empanadas Veganas Samadhiveg Quilpué",
    "lat": -33.0132805,
    "lng": -71.4932808
  },
  {
    "nombre": "Violeta Restaurant",
    "lat": -33.4479115,
    "lng": -70.6243953
  },
  {
    "nombre": "Verde Sazón",
    "lat": -33.4462054,
    "lng": -70.6170553
  },
  {
    "nombre": "El Huerto",
    "lat": -33.4228109,
    "lng": -70.6125428
  },
  {
    "nombre": "Katako Vegan",
    "lat": -33.4415579,
    "lng": -70.6296418
  },
  {
    "nombre": "Empanadas Veganas Samadhiveg",
    "lat": -33.0374963,
    "lng": -71.4401088
  },
  {
    "nombre": "Cafetería El Encuentro",
    "lat": -33.03948,
    "lng": -71.4275101
  },
  {
    "nombre": "AROMA CAFÉ QUILPUÉ",
    "lat": -33.0466585,
    "lng": -71.4442726
  },
  {
    "nombre": "Cafe con Historia - Quilpue",
    "lat": -33.0460103,
    "lng": -71.4454596
  },
  {
    "nombre": "Café Miranda Quilpué",
    "lat": -33.0477323,
    "lng": -71.4444858
  },
  {
    "nombre": "Café Estación Expresso",
    "lat": -33.0471824,
    "lng": -71.4384153
  },
  {
    "nombre": "Café Rosinni Chile",
    "lat": -33.0461664,
    "lng": -71.444249
  },
  {
    "nombre": "La Tertulia Café Bar",
    "lat": -33.0484612,
    "lng": -71.4434672
  },
  {
    "nombre": "Café Color",
    "lat": -33.0421002,
    "lng": -71.4634121
  },
  {
    "nombre": "The Box Café",
    "lat": -33.0443339,
    "lng": -71.442292
  },
  {
    "nombre": "Café Lübeck",
    "lat": -33.046777,
    "lng": -71.443486
  },
  {
    "nombre": "El Molino Cafetería y Heladería",
    "lat": -33.0476535,
    "lng": -71.4458375
  },
  {
    "nombre": "Annette",
    "lat": -33.0502977,
    "lng": -71.4451196
  },
  {
    "nombre": "Coffee Day´s",
    "lat": -33.0471828,
    "lng": -71.4384167
  },
  {
    "nombre": "Coffee Garden",
    "lat": -33.0591809,
    "lng": -71.4368705
  },
  {
    "nombre": "Café Pablo",
    "lat": -33.0472625,
    "lng": -71.4444161
  },
  {
    "nombre": "Delicias",
    "lat": -33.0464743,
    "lng": -71.4048233
  },
  {
    "nombre": "Mokavad Deli Mediterraneo",
    "lat": -33.0428033,
    "lng": -71.4331228
  },
  {
    "nombre": "Tea Corner Quilpué",
    "lat": -33.048818,
    "lng": -71.4424126
  },
  {
    "nombre": "Akiva Cefeteria",
    "lat": -33.0457032,
    "lng": -71.4459298
  },
  {
    "nombre": "coffee dreams Quilpue",
    "lat": -33.046899,
    "lng": -71.441489
  },
  {
    "nombre": "Parada Custom",
    "lat": -33.0430267,
    "lng": -71.4663943
  },
  {
    "nombre": "Completos - Comida Rápida",
    "lat": -33.0399028,
    "lng": -71.4077485
  },
  {
    "nombre": "Don Gusta",
    "lat": -33.4746253,
    "lng": -70.6342903
  },
  {
    "nombre": "Lukaso Hot Dog",
    "lat": -33.4113105,
    "lng": -70.637257
  },
  {
    "nombre": "Perritos Chao",
    "lat": -33.4514887,
    "lng": -70.6239333
  },
  {
    "nombre": "Doggis",
    "lat": -33.0455725,
    "lng": -71.4202959
  },
  {
    "nombre": "Sandwicheria Buen Gusto",
    "lat": -33.0480549,
    "lng": -71.4455821
  },
  {
    "nombre": "Oso Comilon",
    "lat": -33.0531807,
    "lng": -71.4056158
  },
  {
    "nombre": "Carrito* Te Pasaste *",
    "lat": -33.4786078,
    "lng": -70.636943
  },
  {
    "nombre": "Sangucheria Fenix",
    "lat": -33.0478912,
    "lng": -71.4452172
  },
  {
    "nombre": "Sazón",
    "lat": -33.0485613,
    "lng": -71.444132
  },
  {
    "nombre": "El Señor de los Completos",
    "lat": -33.0451958,
    "lng": -71.3906843
  },
  {
    "nombre": "Carritos de Comida para Eventos - Cumpleaños - Domicilio. Hot Dogs, Hamburguesas, Churrascos, Completos. Maldito Sándwich.",
    "lat": -33.472788,
    "lng": -70.6298313
  },
  {
    "nombre": "Food go Delivery",
    "lat": -33.0511055,
    "lng": -71.4016446
  },
  {
    "nombre": "Freak and Chips",
    "lat": -33.0470649,
    "lng": -71.407866
  },
  {
    "nombre": "Dominó",
    "lat": -33.4186714,
    "lng": -70.6014985
  },
  {
    "nombre": "Pollos \"San Martin\" a las Brasas.- Hot-Dog - Sandwich & Pasteleria",
    "lat": -33.5759195,
    "lng": -70.5648858
  },
  {
    "nombre": "Dominó",
    "lat": -33.4285241,
    "lng": -70.6193855
  },
  {
    "nombre": "Hot Pancho S",
    "lat": -33.4915107,
    "lng": -70.6163584
  },
  {
    "nombre": "Harry Complet 2.0",
    "lat": -33.0518618,
    "lng": -71.3911236
  },
  {
    "nombre": "Roof Burger Quilpue",
    "lat": -33.0461925,
    "lng": -71.4459394
  },
  {
    "nombre": "La Gran Mechada",
    "lat": -33.046746,
    "lng": -71.4079392
  },
  {
    "nombre": "Dominó",
    "lat": -33.441377,
    "lng": -70.6508338
  },
  {
    "nombre": "Queen burger",
    "lat": -33.0474923,
    "lng": -71.4326992
  },
  {
    "nombre": "Del Crepúsculo al Amanecer",
    "lat": -33.0583053,
    "lng": -71.395822
  },
  {
    "nombre": "Sanguchería Mc Cool 2",
    "lat": -33.5012781,
    "lng": -70.6226784
  },
  {
    "nombre": "Sandwicheria Churraskon",
    "lat": -33.0615583,
    "lng": -71.4245596
  },
  {
    "nombre": "Manavai Sandwich",
    "lat": -33.0462478,
    "lng": -71.3985521
  },
  {
    "nombre": "Entre Tuercas Food Trailer",
    "lat": -33.0470937,
    "lng": -71.4076904
  },
  {
    "nombre": "Fuente de Soda Cevasco",
    "lat": -33.0467034,
    "lng": -71.4075621
  },
  {
    "nombre": "BREAK hotdogs and burgers",
    "lat": -33.0463147,
    "lng": -71.4386998
  },
  {
    "nombre": "Da Salvatore",
    "lat": -33.0363137,
    "lng": -71.4282283
  },
  {
    "nombre": "La Quinta Pata al Gato",
    "lat": -33.0472297,
    "lng": -71.4362716
  },
  {
    "nombre": "Restaurant EL FOGÓN DE LOS DESEOS",
    "lat": -33.0452567,
    "lng": -71.4146661
  },
  {
    "nombre": "Brasas Del Sur",
    "lat": -33.0466066,
    "lng": -71.4462313
  },
  {
    "nombre": "Fratelli e Amici",
    "lat": -33.0474226,
    "lng": -71.4482367
  },
  {
    "nombre": "Restaurant Casona de Quilpue",
    "lat": -33.04339,
    "lng": -71.45169
  },
  {
    "nombre": "Restaurant Tacora",
    "lat": -33.0480832,
    "lng": -71.4426561
  },
  {
    "nombre": "Sikdorak quilpue",
    "lat": -33.0475323,
    "lng": -71.4324357
  },
  {
    "nombre": "Sous Sol Restaurante",
    "lat": -33.0461785,
    "lng": -71.4460963
  },
  {
    "nombre": "Il Pizzaiolo",
    "lat": -33.046444,
    "lng": -71.4073006
  },
  {
    "nombre": "Encanto de mi tierra",
    "lat": -33.04576,
    "lng": -71.44555
  },
  {
    "nombre": "Lo Nuestro Restaurant",
    "lat": -33.0483079,
    "lng": -71.4292905
  },
  {
    "nombre": "Restaurant Sol de Mar",
    "lat": -33.0455017,
    "lng": -71.4374084
  },
  {
    "nombre": "Punto Asador",
    "lat": -33.0462805,
    "lng": -71.4397461
  },
  {
    "nombre": "SushiWeb Quilpué",
    "lat": -33.0441634,
    "lng": -71.4331138
  },
  {
    "nombre": "EnCanto Karaoke Restobar",
    "lat": -33.0465,
    "lng": -71.4366299
  },
  {
    "nombre": "Mambar Restaurant & Bar",
    "lat": -33.0505014,
    "lng": -71.4416942
  },
  {
    "nombre": "La Tatemada",
    "lat": -33.0459723,
    "lng": -71.4396849
  },
  {
    "nombre": "Gorilas",
    "lat": -33.042553,
    "lng": -71.4378338
  },
  {
    "nombre": "KARACHI SPICE Restaurante Pakistani",
    "lat": -33.0464554,
    "lng": -71.4372024
  },
  {
    "nombre": "Kiosco El Andino",
    "lat": -33.4721914,
    "lng": -70.6263511
  },
  {
    "nombre": "Emporio K market",
    "lat": -33.0461724,
    "lng": -71.4442425
  },
  {
    "nombre": "Kiosco Los Marineros",
    "lat": -32.9995602,
    "lng": -71.549055
  },
  {
    "nombre": "Estación Tentacion",
    "lat": -33.0413959,
    "lng": -71.3819346
  },
  {
    "nombre": "Rewind Bar",
    "lat": -33.0459836,
    "lng": -71.4459151
  },
  {
    "nombre": "Kiosko Donde Pipe",
    "lat": -33.0643952,
    "lng": -71.4292992
  },
  {
    "nombre": "Bodega Ahorro",
    "lat": -33.0433131,
    "lng": -71.4165153
  },
  {
    "nombre": "Central Mayorista",
    "lat": -33.0469659,
    "lng": -71.418753
  },
  {
    "nombre": "Supermercado Mayorista 10",
    "lat": -33.0438977,
    "lng": -71.4182444
  },
  {
    "nombre": "Jumbo",
    "lat": -33.0453715,
    "lng": -71.4227682
  },
  {
    "nombre": "Botilleria y Abarrotes La Frontera",
    "lat": -33.0422726,
    "lng": -71.4305057
  },
  {
    "nombre": "Provimarket",
    "lat": -33.0474732,
    "lng": -71.4444427
  },
  {
    "nombre": "Minimarket La Villa",
    "lat": -33.0728738,
    "lng": -71.4231337
  },
  {
    "nombre": "La Granja",
    "lat": -33.0462654,
    "lng": -71.4399307
  },
  {
    "nombre": "Almacén Orozco",
    "lat": -33.057938,
    "lng": -71.4023267
  },
  {
    "nombre": "Botillería y minimarket Los Rivera",
    "lat": -33.0596971,
    "lng": -71.4510167
  },
  {
    "nombre": "Local Abarrotes y cocineria",
    "lat": -33.0382468,
    "lng": -71.4061309
  },
  {
    "nombre": "Alvi",
    "lat": -33.0444356,
    "lng": -71.4174571
  },
  {
    "nombre": "Almacén Tío Guenty",
    "lat": -33.0491438,
    "lng": -71.4232477
  },
  {
    "nombre": "Minimarket Hualpen",
    "lat": -33.0463508,
    "lng": -71.409064
  },
  {
    "nombre": "Santa Isabel",
    "lat": -33.0461123,
    "lng": -71.4431822
  },
  {
    "nombre": "Express de Lider",
    "lat": -33.048338,
    "lng": -71.442529
  },
  {
    "nombre": "Emporio Central Quilpue",
    "lat": -33.0479864,
    "lng": -71.4440784
  },
  {
    "nombre": "EcoSuper",
    "lat": -33.046942,
    "lng": -71.436884
  },
  {
    "nombre": "Minimarket Abril",
    "lat": -33.0436178,
    "lng": -71.4345166
  },
  {
    "nombre": "Mini Mercado Supermercado de Frutas",
    "lat": -33.0544701,
    "lng": -71.4373641
  },
  {
    "nombre": "Sra Maria, carnicería y Minimarket",
    "lat": -33.0318461,
    "lng": -71.404031
  },
  {
    "nombre": "Mall De Quilpue",
    "lat": -33.0469927,
    "lng": -71.4417825
  },
  {
    "nombre": "Ripley Quilpué",
    "lat": -33.0478376,
    "lng": -71.4410978
  },
  {
    "nombre": "Rois Minimarket",
    "lat": -33.0694889,
    "lng": -71.4226985
  },
  {
    "nombre": "Almacenes pepes",
    "lat": -33.0465896,
    "lng": -71.4410912
  },
  {
    "nombre": "Supermercado MORONI",
    "lat": -33.0448256,
    "lng": -71.4161685
  },
  {
    "nombre": "Botillería y provisiones Marta",
    "lat": -33.054694,
    "lng": -71.419119
  },
  {
    "nombre": "Dist. Confites Alijor de papulandia",
    "lat": -33.0467274,
    "lng": -71.4379839
  },
  {
    "nombre": "Almacen Inesita",
    "lat": -33.0382908,
    "lng": -71.43063
  },
  {
    "nombre": "CM BELLOTO",
    "lat": -33.0447634,
    "lng": -71.4184913
  },
  {
    "nombre": "Centro Naturista Quillay",
    "lat": -33.048966,
    "lng": -71.4410912
  },
  {
    "nombre": "Emporio Clafira",
    "lat": -33.0479066,
    "lng": -71.4449511
  },
  {
    "nombre": "Bodega Futrono",
    "lat": -33.0492593,
    "lng": -71.4360452
  },
  {
    "nombre": "Herbolario Mika",
    "lat": -33.0465278,
    "lng": -71.4396912
  },
  {
    "nombre": "Farmacias Knop",
    "lat": -33.0472533,
    "lng": -71.4417189
  },
  {
    "nombre": "Farmacias Knop",
    "lat": -33.0541294,
    "lng": -71.4384757
  },
  {
    "nombre": "Centro Naturista Salud Plena",
    "lat": -33.0467286,
    "lng": -71.4075615
  },
  {
    "nombre": "Viridis - Natural Y Mística",
    "lat": -33.0461724,
    "lng": -71.4442425
  },
  {
    "nombre": "Farmacia Mas Salud",
    "lat": -33.0464407,
    "lng": -71.4402865
  },
  {
    "nombre": "Naturale SpA",
    "lat": -33.0553747,
    "lng": -71.4265757
  },
  {
    "nombre": "Empanadas Veganas Samadhiveg Quilpué",
    "lat": -33.0132805,
    "lng": -71.4932808
  },
  {
    "nombre": "FARMACIA ECONATURA",
    "lat": -33.0464581,
    "lng": -71.4384026
  },
  {
    "nombre": "Empanadas La Cabaña",
    "lat": -33.0362103,
    "lng": -71.4278368
  },
  {
    "nombre": "Emporio Alegre",
    "lat": -33.0660433,
    "lng": -71.4224409
  },
  {
    "nombre": "Fabrica Baden Powell",
    "lat": -33.037209,
    "lng": -71.4250414
  },
  {
    "nombre": "Productos y Artículos de limpieza Royal Clean Quilpue",
    "lat": -33.0344751,
    "lng": -71.405805
  },
  {
    "nombre": "GOTA HOGAR",
    "lat": -33.0494839,
    "lng": -71.4502746
  },
  {
    "nombre": "EcoClean Quilpué",
    "lat": -33.0556244,
    "lng": -71.4267625
  },
  {
    "nombre": "Distribuidora De Productos De Limpieza Industrial Proclean Chile Limitada",
    "lat": -33.0532269,
    "lng": -71.409667
  },
  {
    "nombre": "Celyfam",
    "lat": -33.0460968,
    "lng": -71.4408676
  },
  {
    "nombre": "RODAMIENTOS QUILPUÉ",
    "lat": -33.0465331,
    "lng": -71.4375937
  },
  {
    "nombre": "Detergentes FLASH",
    "lat": -33.0423427,
    "lng": -71.417035
  },
  {
    "nombre": "SIRIUS STORE",
    "lat": -33.0469002,
    "lng": -71.4368789
  },
  {
    "nombre": "Cosméticos Emily",
    "lat": -33.0461724,
    "lng": -71.4442425
  },
  {
    "nombre": "Distribuidora Ditama Spa",
    "lat": -33.0482707,
    "lng": -71.4408752
  },
  {
    "nombre": "Hades Insumos - Quilpué",
    "lat": -33.0461724,
    "lng": -71.4442425
  },
  {
    "nombre": "La Granja",
    "lat": -33.0462654,
    "lng": -71.4399307
  },
  {
    "nombre": "Mezcla Concept - Tienda Colaborativa",
    "lat": -33.0469326,
    "lng": -71.4409753
  },
  {
    "nombre": "Pichara Casa Matriz",
    "lat": -33.0457677,
    "lng": -71.4424395
  },
  {
    "nombre": "TELAS QUILPUE",
    "lat": -33.0480358,
    "lng": -71.4440871
  },
  {
    "nombre": "Novoclean Servicios de Limpieza de Alfombras Pisos Aseo Valparaiso Viña del Mar Quilpue",
    "lat": -33.0761522,
    "lng": -71.4241676
  },
  {
    "nombre": "Librería y bazar mil hojas (online)",
    "lat": -33.0702455,
    "lng": -71.4136905
  },
  {
    "nombre": "Librería Marie",
    "lat": -33.0361509,
    "lng": -71.4840957
  },
  {
    "nombre": "Altisastore",
    "lat": -33.0385114,
    "lng": -71.4312467
  },
  {
    "nombre": "Libros Usados",
    "lat": -33.0464663,
    "lng": -71.4397274
  },
  {
    "nombre": "Easy El Belloto",
    "lat": -33.0457499,
    "lng": -71.420058
  },
  {
    "nombre": "Sodimac Homecenter El Belloto",
    "lat": -33.0452143,
    "lng": -71.4169922
  },
  {
    "nombre": "Muebleria Rachell (Belloto - Quilpue)",
    "lat": -33.046631,
    "lng": -71.405599
  },
  {
    "nombre": "TELAS QUILPUE",
    "lat": -33.0480358,
    "lng": -71.4440871
  },
  {
    "nombre": "Ripley Quilpué",
    "lat": -33.0478376,
    "lng": -71.4410978
  },
  {
    "nombre": "Telas vaisaa",
    "lat": -33.0458078,
    "lng": -71.4434317
  },
  {
    "nombre": "ABCDIN Quilpué",
    "lat": -33.0467978,
    "lng": -71.4416609
  },
  {
    "nombre": "Fabrica de camas en quilpué",
    "lat": -33.0576136,
    "lng": -71.4495692
  },
  {
    "nombre": "Quincalleria Central",
    "lat": -33.0459279,
    "lng": -71.4425833
  },
  {
    "nombre": "GOTA HOGAR",
    "lat": -33.0494839,
    "lng": -71.4502746
  },
  {
    "nombre": "MAQUIZA DECOHOGAR ON LINE",
    "lat": -33.048338,
    "lng": -71.442529
  },
  {
    "nombre": "CH Design Chile",
    "lat": -33.0429337,
    "lng": -71.4331925
  },
  {
    "nombre": "Construmart - El Belloto",
    "lat": -33.0430883,
    "lng": -71.4189202
  },
  {
    "nombre": "INFINITO - Electrónica, Computación, Iluminación, Hogar y Más",
    "lat": -33.0471875,
    "lng": -71.4414611
  },
  {
    "nombre": "BAZAR DE ARTICULOS PARA REGALOS",
    "lat": -33.0458296,
    "lng": -71.4185075
  },
  {
    "nombre": "ABCDIN El Belloto",
    "lat": -33.0455354,
    "lng": -71.4212943
  },
  {
    "nombre": "Bazar Talcahuano",
    "lat": -33.0456236,
    "lng": -71.4404651
  },
  {
    "nombre": "El Tapicero",
    "lat": -33.0482707,
    "lng": -71.4408752
  },
  {
    "nombre": "Fabrica Baden Powell",
    "lat": -33.037209,
    "lng": -71.4250414
  },
  {
    "nombre": "Cortinas, accesorios e instalaciones Decoplus C&C",
    "lat": -33.0463284,
    "lng": -71.4406857
  },
  {
    "nombre": "Podologia Viña DANBERD",
    "lat": -33.013065,
    "lng": -71.549807
  },
  {
    "nombre": "Ortomedica Quilpue",
    "lat": -33.0483298,
    "lng": -71.4435468
  },
  {
    "nombre": "Importadora Biocare Ltda.",
    "lat": -33.0465961,
    "lng": -71.438027
  },
  {
    "nombre": "Biomedica",
    "lat": -33.0464893,
    "lng": -71.438274
  },
  {
    "nombre": "Ortopedia Punto Vital",
    "lat": -33.0467011,
    "lng": -71.4436695
  },
  {
    "nombre": "Traqueo",
    "lat": -33.0565611,
    "lng": -71.4356233
  },
  {
    "nombre": "regalos con ideas",
    "lat": -33.0542612,
    "lng": -71.4560373
  },
  {
    "nombre": "Zafiro Gifts",
    "lat": -33.0469326,
    "lng": -71.4409753
  },
  {
    "nombre": "Colibrí, Detalles que Mereces",
    "lat": -33.03394,
    "lng": -71.4056192
  },
  {
    "nombre": "BAZAR DE ARTICULOS PARA REGALOS",
    "lat": -33.0458296,
    "lng": -71.4185075
  },
  {
    "nombre": "Creaciones Bozzo - Artes y Oficios",
    "lat": -33.045512,
    "lng": -71.4416138
  },
  {
    "nombre": "Regalos Corporativos Ñayki Quilpué",
    "lat": -33.0363989,
    "lng": -71.4427146
  },
  {
    "nombre": "Gran Asia Quilpue",
    "lat": -33.0677241,
    "lng": -71.4182521
  },
  {
    "nombre": "La Cajita de la Fran",
    "lat": -33.0467093,
    "lng": -71.4421219
  },
  {
    "nombre": "K-POP Quilpue",
    "lat": -33.0492089,
    "lng": -71.4410531
  },
  {
    "nombre": "Melody Accesorios",
    "lat": -33.047177,
    "lng": -71.442238
  },
  {
    "nombre": "Hremi TCG",
    "lat": -33.0467673,
    "lng": -71.4076954
  },
  {
    "nombre": "Tienda Tuticuanti",
    "lat": -33.0483213,
    "lng": -71.441389
  },
  {
    "nombre": "Pintye Teñido de ropa tie dye en Quilpué",
    "lat": -33.0519074,
    "lng": -71.453556
  },
  {
    "nombre": "Willyyorka",
    "lat": -33.0504247,
    "lng": -71.4076627
  },
  {
    "nombre": "EcoSuper",
    "lat": -33.046942,
    "lng": -71.436884
  },
  {
    "nombre": "Impresiones Personalizadas Que ES Print Quilpué",
    "lat": -33.0392124,
    "lng": -71.4096201
  },
  {
    "nombre": "Tienda de Jordy",
    "lat": -33.0622059,
    "lng": -71.4228012
  },
  {
    "nombre": "GotitasaColor",
    "lat": -33.0343974,
    "lng": -71.4042704
  },
  {
    "nombre": "DEDOSLASER, Regalos personalizados,Impresion 3D, Diseño, Corte y Grabado Laser, Adhesivos, Llaveros, Regalos Personalizados",
    "lat": -33.035929,
    "lng": -71.3968408
  },
  {
    "nombre": "Luder Camping Regalos",
    "lat": -33.0470426,
    "lng": -71.4420754
  },
  {
    "nombre": "La Casa del Estampado Chile",
    "lat": -33.0464052,
    "lng": -71.4442056
  },
  {
    "nombre": "Trofeos El Sol",
    "lat": -33.0449783,
    "lng": -71.4500284
  },
  {
    "nombre": "Laica Papelería",
    "lat": -33.0285501,
    "lng": -71.402471
  },
  {
    "nombre": "Tiendita de Souvenirs",
    "lat": -33.0355436,
    "lng": -71.4783826
  },
  {
    "nombre": "FLORERÍA EN QUILPUE FLORESER",
    "lat": -33.0448816,
    "lng": -71.4381615
  },
  {
    "nombre": "Easy El Belloto",
    "lat": -33.0457499,
    "lng": -71.420058
  },
  {
    "nombre": "Multicaja S.A.",
    "lat": -33.048643,
    "lng": -71.405939
  },
  {
    "nombre": "Cuadro Graduación",
    "lat": -33.0404616,
    "lng": -71.402929
  },
  {
    "nombre": "Subiaco.ventas",
    "lat": -33.040207,
    "lng": -71.4297809
  },
  {
    "nombre": "Librería El Quijote",
    "lat": -33.038237,
    "lng": -71.4052509
  },
  {
    "nombre": "Ansaldo Quilpué",
    "lat": -33.048338,
    "lng": -71.442529
  },
  {
    "nombre": "Ripley Quilpué",
    "lat": -33.0478376,
    "lng": -71.4410978
  },
  {
    "nombre": "Mezcla Concept - Tienda Colaborativa",
    "lat": -33.0469326,
    "lng": -71.4409753
  },
  {
    "nombre": "Momentos para regalar",
    "lat": -33.0733095,
    "lng": -71.4312819
  },
  {
    "nombre": "Taller Alistarte",
    "lat": -33.0471421,
    "lng": -71.4661459
  },
  {
    "nombre": "Telas Cordoneria",
    "lat": -33.0460044,
    "lng": -71.4403294
  },
  {
    "nombre": "Casa Rosita",
    "lat": -33.0466696,
    "lng": -71.4438381
  },
  {
    "nombre": "Librería Titín",
    "lat": -33.0471204,
    "lng": -71.4422407
  },
  {
    "nombre": "Espacio macati",
    "lat": -33.0472801,
    "lng": -71.4141891
  },
  {
    "nombre": "Unicose Quilpue",
    "lat": -33.0479611,
    "lng": -71.4440828
  },
  {
    "nombre": "Paqueteria Petelos",
    "lat": -33.0472229,
    "lng": -71.4417239
  },
  {
    "nombre": "Librería Titín",
    "lat": -33.0471204,
    "lng": -71.4422407
  },
  {
    "nombre": "Librería Arte Escolar",
    "lat": -33.0465552,
    "lng": -71.4437488
  },
  {
    "nombre": "masterplastific",
    "lat": -33.0465129,
    "lng": -71.4413327
  },
  {
    "nombre": "Decoratucumple",
    "lat": -33.0457685,
    "lng": -71.4417334
  },
  {
    "nombre": "Melody Accesorios",
    "lat": -33.047177,
    "lng": -71.442238
  },
  {
    "nombre": "Librería Economica G y B",
    "lat": -33.0461633,
    "lng": -71.440935
  },
  {
    "nombre": "Vinyl & co",
    "lat": -33.0464742,
    "lng": -71.4428509
  },
  {
    "nombre": "LA PAPELERIA",
    "lat": -33.0489601,
    "lng": -71.4409641
  },
  {
    "nombre": "Altisastore",
    "lat": -33.0385114,
    "lng": -71.4312467
  },
  {
    "nombre": "Belén y Alanis Papelería",
    "lat": -33.0435697,
    "lng": -71.4703288
  },
  {
    "nombre": "Osito Maquillaje",
    "lat": -33.0461664,
    "lng": -71.444249
  },
  {
    "nombre": "Casa Rosita",
    "lat": -33.0466696,
    "lng": -71.4438381
  },
  {
    "nombre": "Scrap Quinta Insumos",
    "lat": -33.0653561,
    "lng": -71.4274302
  },
  {
    "nombre": "CREA VISUAL IMPRENTA Y ESTAMPADOS",
    "lat": -33.0461072,
    "lng": -71.4411116
  },
  {
    "nombre": "Emporio Librería & Papelería Creativa",
    "lat": -33.0732587,
    "lng": -71.4347227
  },
  {
    "nombre": "Eco tintas Quilpué",
    "lat": -33.04809,
    "lng": -71.4434794
  },
  {
    "nombre": "Estampado Beissa impresiones",
    "lat": -33.0470941,
    "lng": -71.4422798
  },
  {
    "nombre": "Soy de Papel",
    "lat": -33.0430958,
    "lng": -71.4310826
  },
  {
    "nombre": "Mall De Quilpue",
    "lat": -33.0469927,
    "lng": -71.4417825
  },
  {
    "nombre": "Laica Papelería",
    "lat": -33.0285501,
    "lng": -71.402471
  },
  {
    "nombre": "Bazar Orel",
    "lat": -33.0320433,
    "lng": -71.4034519
  },
  {
    "nombre": "Notas de Maru",
    "lat": -33.0670727,
    "lng": -71.4177526
  },
  {
    "nombre": "Amapoola.store",
    "lat": -33.04274,
    "lng": -71.41116
  },
  {
    "nombre": "GaLiv Insumos",
    "lat": -33.0350477,
    "lng": -71.3963189
  },
  {
    "nombre": "Stamporio",
    "lat": -33.0468615,
    "lng": -71.4077745
  },
  {
    "nombre": "Espiral Librería - Útiles escolares, papelería, impresiones y fotocopias",
    "lat": -33.0403372,
    "lng": -71.3945353
  },
  {
    "nombre": "Soy de Papel",
    "lat": -33.0430958,
    "lng": -71.4310826
  },
  {
    "nombre": "Papeleria BJB",
    "lat": -33.0553678,
    "lng": -71.4068033
  },
  {
    "nombre": "Lucky Mila Store",
    "lat": -33.042739,
    "lng": -71.4237763
  },
  {
    "nombre": "Mall De Quilpue",
    "lat": -33.0469927,
    "lng": -71.4417825
  },
  {
    "nombre": "INFINITO - Electrónica, Computación, Iluminación, Hogar y Más",
    "lat": -33.0471875,
    "lng": -71.4414611
  },
  {
    "nombre": "HAS Electronica - Servicio Técnico Computadores, TV y Consolas de Videojuegos",
    "lat": -33.0479109,
    "lng": -71.4450989
  },
  {
    "nombre": "Servicio Técnico de computadoras - Formateo - Armado de PC - Limpieza PC & Notebook",
    "lat": -33.0481209,
    "lng": -71.4489878
  },
  {
    "nombre": "ABCDIN El Belloto",
    "lat": -33.0455354,
    "lng": -71.4212943
  },
  {
    "nombre": "Planeta Electroled",
    "lat": -33.0460315,
    "lng": -71.4412658
  },
  {
    "nombre": "Telecomunicaciones, Informatica Y Venta De Computadoras Pablo Alejandro Toloza S",
    "lat": -33.034791,
    "lng": -71.412518
  },
  {
    "nombre": "Joespongy",
    "lat": -33.0494114,
    "lng": -71.4404951
  },
  {
    "nombre": "Electromarket",
    "lat": -33.0457392,
    "lng": -71.4215171
  },
  {
    "nombre": "CompuSystem Technology SPA",
    "lat": -33.0467961,
    "lng": -71.4415607
  },
  {
    "nombre": "ABCDIN Quilpué",
    "lat": -33.0467978,
    "lng": -71.4416609
  },
  {
    "nombre": "Punto next",
    "lat": -33.0464223,
    "lng": -71.4444384
  },
  {
    "nombre": "vai-jo",
    "lat": -33.046147,
    "lng": -71.444138
  },
  {
    "nombre": "Emergencias Informáticas",
    "lat": -33.0585541,
    "lng": -71.4186648
  },
  {
    "nombre": "Planeta Electroled",
    "lat": -33.0460315,
    "lng": -71.4412658
  },
  {
    "nombre": "CeluMania Quilpue",
    "lat": -33.0483348,
    "lng": -71.4413944
  },
  {
    "nombre": "Punto next",
    "lat": -33.0464223,
    "lng": -71.4444384
  },
  {
    "nombre": "Fix Store Ltda",
    "lat": -33.0469326,
    "lng": -71.4409753
  },
  {
    "nombre": "Ny movil",
    "lat": -33.0461724,
    "lng": -71.4442425
  },
  {
    "nombre": "Rk Repairs Quilpue",
    "lat": -33.0463404,
    "lng": -71.4410156
  },
  {
    "nombre": "CompuSystem Technology SPA",
    "lat": -33.0467961,
    "lng": -71.4415607
  },
  {
    "nombre": "Electromarket",
    "lat": -33.0457392,
    "lng": -71.4215171
  },
  {
    "nombre": "WOM",
    "lat": -33.0479209,
    "lng": -71.4427335
  },
  {
    "nombre": "Ripley Quilpué",
    "lat": -33.0478376,
    "lng": -71.4410978
  },
  {
    "nombre": "Leo Celulares servicio técnico previa cita",
    "lat": -33.0510391,
    "lng": -71.400213
  },
  {
    "nombre": "WOM",
    "lat": -33.0451752,
    "lng": -71.4213787
  },
  {
    "nombre": "Movistar",
    "lat": -33.0482912,
    "lng": -71.4429331
  },
  {
    "nombre": "Servicio Técnico de computadoras - Formateo - Armado de PC - Limpieza PC & Notebook",
    "lat": -33.0481209,
    "lng": -71.4489878
  },
  {
    "nombre": "Cintegral Mall Plaza del Sol, Quilpué",
    "lat": -33.046955,
    "lng": -71.4411285
  },
  {
    "nombre": "S.O.S - Servicio Técnico Computacional",
    "lat": -33.0468793,
    "lng": -71.4077212
  },
  {
    "nombre": "HAS Electronica - Servicio Técnico Computadores, TV y Consolas de Videojuegos",
    "lat": -33.0479109,
    "lng": -71.4450989
  },
  {
    "nombre": "INFINITO - Electrónica, Computación, Iluminación, Hogar y Más",
    "lat": -33.0471875,
    "lng": -71.4414611
  },
  {
    "nombre": "CompuSystem Technology SPA",
    "lat": -33.0467961,
    "lng": -71.4415607
  },
  {
    "nombre": "QuilpuéFix",
    "lat": -33.0398074,
    "lng": -71.4777687
  },
  {
    "nombre": "Computacion Integral",
    "lat": -33.0461948,
    "lng": -71.4680713
  },
  {
    "nombre": "Monkeys Quilpue",
    "lat": -33.0477743,
    "lng": -71.4424578
  },
  {
    "nombre": "RODAMIENTOS QUILPUÉ",
    "lat": -33.0465331,
    "lng": -71.4375937
  },
  {
    "nombre": "Ripley Quilpué",
    "lat": -33.0478376,
    "lng": -71.4410978
  },
  {
    "nombre": "CeluMania Quilpue",
    "lat": -33.0483348,
    "lng": -71.4413944
  },
  {
    "nombre": "Emergencias Informáticas",
    "lat": -33.0585541,
    "lng": -71.4186648
  },
  {
    "nombre": "Punto next",
    "lat": -33.0464223,
    "lng": -71.4444384
  },
  {
    "nombre": "Planeta Electroled",
    "lat": -33.0460315,
    "lng": -71.4412658
  },
  {
    "nombre": "Fuentes Informática",
    "lat": -33.0652065,
    "lng": -71.4334914
  },
  {
    "nombre": "BAZAR DE ARTICULOS PARA REGALOS",
    "lat": -33.0458296,
    "lng": -71.4185075
  },
  {
    "nombre": "Rk Repairs Quilpue",
    "lat": -33.0463404,
    "lng": -71.4410156
  },
  {
    "nombre": "Joespongy",
    "lat": -33.0494114,
    "lng": -71.4404951
  },
  {
    "nombre": "Servicio Tecnico en Computacion , Diseño Publicitario Web",
    "lat": -33.060759,
    "lng": -71.4058
  },
  {
    "nombre": "Hremi TCG",
    "lat": -33.0467673,
    "lng": -71.4076954
  },
  {
    "nombre": "GAMES CHILE",
    "lat": -33.0480357,
    "lng": -71.4423293
  },
  {
    "nombre": "Hobby Video Juegos",
    "lat": -33.0460291,
    "lng": -71.4429407
  },
  {
    "nombre": "modelismo",
    "lat": -33.04368,
    "lng": -71.4555143
  },
  {
    "nombre": "ToySports",
    "lat": -33.0556456,
    "lng": -71.4228775
  },
  {
    "nombre": "Nino Gamer",
    "lat": -33.0460301,
    "lng": -71.4404963
  },
  {
    "nombre": "Weplay Store",
    "lat": -33.0452491,
    "lng": -71.4224642
  },
  {
    "nombre": "Fromgames Chile",
    "lat": -33.0471849,
    "lng": -71.4079517
  },
  {
    "nombre": "Arcadia",
    "lat": -33.045645,
    "lng": -71.4401398
  },
  {
    "nombre": "Ansaldo Quilpué",
    "lat": -33.048338,
    "lng": -71.442529
  },
  {
    "nombre": "Rocket TCG Game Store Villa alemana",
    "lat": -33.0437839,
    "lng": -71.3766998
  },
  {
    "nombre": "Videojuegos play game chile",
    "lat": -33.0475122,
    "lng": -71.4080499
  },
  {
    "nombre": "storm tcg",
    "lat": -33.0469326,
    "lng": -71.4409753
  },
  {
    "nombre": "Alter Mundi",
    "lat": -33.0236799,
    "lng": -71.5566544
  },
  {
    "nombre": "Mirax Hobbies",
    "lat": -33.4099171,
    "lng": -70.5676177
  },
  {
    "nombre": "Spells TCG y Tableros",
    "lat": -33.0242445,
    "lng": -71.5551617
  },
  {
    "nombre": "D'station Music (Music Tiendas)",
    "lat": -33.047523,
    "lng": -71.442107
  },
  {
    "nombre": "Ficcus Mega Outlet Quilpué",
    "lat": -33.0428938,
    "lng": -71.4569413
  },
  {
    "nombre": "Zahr Niños",
    "lat": -33.0465671,
    "lng": -71.4427932
  },
  {
    "nombre": "Limonada",
    "lat": -33.048338,
    "lng": -71.442529
  },
  {
    "nombre": "Villa Infantil Quilpué",
    "lat": -33.0469742,
    "lng": -71.4413247
  },
  {
    "nombre": "Limonada",
    "lat": -33.0451664,
    "lng": -71.4213734
  },
  {
    "nombre": "The Outlet Chile",
    "lat": -33.0536694,
    "lng": -71.4312333
  },
  {
    "nombre": "Boutique Terciopelo",
    "lat": -33.0469565,
    "lng": -71.4362935
  },
  {
    "nombre": "Vip and Glam",
    "lat": -33.0429337,
    "lng": -71.4331925
  },
  {
    "nombre": "Indisca",
    "lat": -33.0465665,
    "lng": -71.4436162
  },
  {
    "nombre": "Maisha Paradisse",
    "lat": -33.0467218,
    "lng": -71.4432062
  },
  {
    "nombre": "Hites",
    "lat": -33.0464207,
    "lng": -71.4416112
  },
  {
    "nombre": "Donna Coccolati, Boutique",
    "lat": -33.0491902,
    "lng": -71.4360092
  },
  {
    "nombre": "El rincón de la moda Quilpué",
    "lat": -33.0525887,
    "lng": -71.4376816
  },
  {
    "nombre": "Julia Confecciones",
    "lat": -33.0494474,
    "lng": -71.4152245
  },
  {
    "nombre": "TOP Underwear",
    "lat": -33.0450954,
    "lng": -71.4226542
  },
  {
    "nombre": "Boutique Balaustros",
    "lat": -33.0430958,
    "lng": -71.3754912
  },
  {
    "nombre": "Mariely Hellen Toledo Filippi Venta De Vestuario Reciclado Y Accesorios Femenino",
    "lat": -33.0445294,
    "lng": -71.3827232
  },
  {
    "nombre": "Mall De Quilpue",
    "lat": -33.0469927,
    "lng": -71.4417825
  },
  {
    "nombre": "Paris el Belloto",
    "lat": -33.043981,
    "lng": -71.420152
  },
  {
    "nombre": "TOP Underwear",
    "lat": -33.0464742,
    "lng": -71.4428509
  },
  {
    "nombre": "The Outlet Chile",
    "lat": -33.0536694,
    "lng": -71.4312333
  },
  {
    "nombre": "T.H.C",
    "lat": -33.0467778,
    "lng": -71.4412349
  },
  {
    "nombre": "Bellota",
    "lat": -33.0469326,
    "lng": -71.4409753
  },
  {
    "nombre": "TOP Underwear",
    "lat": -33.0450954,
    "lng": -71.4226542
  },
  {
    "nombre": "Gabriel Mecánica (ropa de trabajo)",
    "lat": -33.0484981,
    "lng": -71.4067967
  },
  {
    "nombre": "Boutique Terciopelo",
    "lat": -33.0469565,
    "lng": -71.4362935
  },
  {
    "nombre": "TOP Underwear",
    "lat": -33.0464742,
    "lng": -71.4428509
  },
  {
    "nombre": "El Armario Sustentable",
    "lat": -33.048054,
    "lng": -71.4439878
  },
  {
    "nombre": "Ropa Europea",
    "lat": -33.047947,
    "lng": -71.4448255
  },
  {
    "nombre": "RODAMIENTOS QUILPUÉ",
    "lat": -33.0465331,
    "lng": -71.4375937
  },
  {
    "nombre": "El Armario Sustentable",
    "lat": -33.048054,
    "lng": -71.4439878
  },
  {
    "nombre": "Punto de Reciclaje Estero Vivo Quilpué",
    "lat": -33.0412483,
    "lng": -71.4487173
  },
  {
    "nombre": "Recupac",
    "lat": -33.0394977,
    "lng": -71.4167402
  },
  {
    "nombre": "Punto Limpio Quilpué",
    "lat": -33.043875,
    "lng": -71.4350898
  },
  {
    "nombre": "Compraventa de Chatarra",
    "lat": -33.0463604,
    "lng": -71.4062682
  },
  {
    "nombre": "Awen Tienda circular colaborativa",
    "lat": -33.0518573,
    "lng": -71.4559342
  },
  {
    "nombre": "Hites",
    "lat": -33.0464207,
    "lng": -71.4416112
  },
  {
    "nombre": "Libros Usados",
    "lat": -33.0464663,
    "lng": -71.4397274
  },
  {
    "nombre": "Ripley Quilpué",
    "lat": -33.0478376,
    "lng": -71.4410978
  },
  {
    "nombre": "Gea Store - Uniformes Clínicos",
    "lat": -33.0461724,
    "lng": -71.4442425
  },
  {
    "nombre": "La Granja",
    "lat": -33.0462654,
    "lng": -71.4399307
  },
  {
    "nombre": "Quilpué Venta de Patio",
    "lat": -33.0558688,
    "lng": -71.4467976
  },
  {
    "nombre": "Ficcus Mega Outlet Quilpué",
    "lat": -33.0428938,
    "lng": -71.4569413
  },
  {
    "nombre": "Mezcla Concept - Tienda Colaborativa",
    "lat": -33.0469326,
    "lng": -71.4409753
  },
  {
    "nombre": "TELAS QUILPUE",
    "lat": -33.0480358,
    "lng": -71.4440871
  },
  {
    "nombre": "Desarmaduria San Martin",
    "lat": -33.0430527,
    "lng": -71.4656114
  },
  {
    "nombre": "INFINITO - Electrónica, Computación, Iluminación, Hogar y Más",
    "lat": -33.0471875,
    "lng": -71.4414611
  },
  {
    "nombre": "Autoplanet Quilpue",
    "lat": -33.0468776,
    "lng": -71.4386534
  },
  {
    "nombre": "ARM Automotriz",
    "lat": -33.0434625,
    "lng": -71.4216096
  },
  {
    "nombre": "ABCDIN Quilpué",
    "lat": -33.0467978,
    "lng": -71.4416609
  },
  {
    "nombre": "Libros Don Chequelo",
    "lat": -33.047366,
    "lng": -71.4078496
  },
  {
    "nombre": "Joespongy",
    "lat": -33.0494114,
    "lng": -71.4404951
  },
  {
    "nombre": "Auto Stock Repuestos",
    "lat": -33.0466821,
    "lng": -71.4363526
  },
  {
    "nombre": "Todo Rock",
    "lat": -33.047971,
    "lng": -71.4424371
  },
  {
    "nombre": "Falabella Quilpué",
    "lat": -33.0469326,
    "lng": -71.4409753
  },
  {
    "nombre": "D'station Music (Music Tiendas)",
    "lat": -33.047523,
    "lng": -71.442107
  },
  {
    "nombre": "Padro Quilpué",
    "lat": -33.0486004,
    "lng": -71.4432484
  },
  {
    "nombre": "Tostaduria El Granero",
    "lat": -33.0465637,
    "lng": -71.4430714
  },
  {
    "nombre": "GAMES CHILE",
    "lat": -33.0480357,
    "lng": -71.4423293
  },
  {
    "nombre": "NGAS QUILPUE",
    "lat": -33.061941,
    "lng": -71.4227072
  },
  {
    "nombre": "CeluMania Quilpue",
    "lat": -33.0483348,
    "lng": -71.4413944
  },
  {
    "nombre": "Andinit Deportes.",
    "lat": -33.0456505,
    "lng": -71.4418828
  },
  {
    "nombre": "Automotriz Meneses",
    "lat": -33.0467292,
    "lng": -71.4364119
  },
  {
    "nombre": "SouthDrop",
    "lat": -33.0482707,
    "lng": -71.4408752
  },
  {
    "nombre": "Joyería | Reparaciones | Argollas Matrimonio| Joyeriages",
    "lat": -33.047084,
    "lng": -71.4423663
  },
  {
    "nombre": "Centro",
    "lat": -33.0442747,
    "lng": -71.4191165
  },
  {
    "nombre": "Ahora o Nunka Bodypiercing Studio",
    "lat": -33.0467093,
    "lng": -71.4421219
  },
  {
    "nombre": "ORTOPEDIA FRANCIA",
    "lat": -33.046996,
    "lng": -71.441764
  },
  {
    "nombre": "Tricot Mall",
    "lat": -33.046852,
    "lng": -71.441659
  },
  {
    "nombre": "Fashion's Park",
    "lat": -33.0474267,
    "lng": -71.4416111
  },
  {
    "nombre": "Decoratucumple",
    "lat": -33.0457685,
    "lng": -71.4417334
  },
  {
    "nombre": "Automotora Carpoint",
    "lat": -33.042694,
    "lng": -71.4222525
  },
  {
    "nombre": "K-POP Quilpue",
    "lat": -33.0492089,
    "lng": -71.4410531
  },
  {
    "nombre": "Monkeys Quilpue",
    "lat": -33.0477743,
    "lng": -71.4424578
  },
  {
    "nombre": "Patronato Telas SPA",
    "lat": -33.045663,
    "lng": -71.4431134
  },
  {
    "nombre": "Alexander",
    "lat": -33.0468458,
    "lng": -71.4356123
  },
  {
    "nombre": "Frenos Giovanna",
    "lat": -33.0466249,
    "lng": -71.4362305
  },
  {
    "nombre": "Saara Music",
    "lat": -33.0481557,
    "lng": -71.4429764
  },
  {
    "nombre": "Lanas paquetería carolita",
    "lat": -33.0487685,
    "lng": -71.4423278
  },
  {
    "nombre": "Sex Shop Quilpué - Duo Sexshop",
    "lat": -33.0480655,
    "lng": -71.4428495
  },
  {
    "nombre": "AutoMania",
    "lat": -33.0472193,
    "lng": -71.4494716
  },
  {
    "nombre": "Todo Piel",
    "lat": -33.046955,
    "lng": -71.4411285
  },
  {
    "nombre": "WOM",
    "lat": -33.0479209,
    "lng": -71.4427335
  },
  {
    "nombre": "Entel Quilpué Mall 2",
    "lat": -33.0469326,
    "lng": -71.4409753
  },
  {
    "nombre": "Todo Tintas",
    "lat": -33.0469893,
    "lng": -71.4421697
  },
  {
    "nombre": "El Tapicero",
    "lat": -33.0482707,
    "lng": -71.4408752
  },
  {
    "nombre": "importadora MDM",
    "lat": -33.0477934,
    "lng": -71.4425754
  },
  {
    "nombre": "La Ponderosa",
    "lat": -33.0459081,
    "lng": -71.4425784
  },
  {
    "nombre": "Express de Lider",
    "lat": -33.048338,
    "lng": -71.442529
  },
  {
    "nombre": "Ansaldo Quilpué",
    "lat": -33.048338,
    "lng": -71.442529
  },
  {
    "nombre": "Distribuidora Ditama Spa",
    "lat": -33.0482707,
    "lng": -71.4408752
  },
  {
    "nombre": "Family",
    "lat": -33.048338,
    "lng": -71.442529
  },
  {
    "nombre": "Ortomedica Quilpue",
    "lat": -33.0483298,
    "lng": -71.4435468
  },
  {
    "nombre": "Luder Camping Regalos",
    "lat": -33.0470426,
    "lng": -71.4420754
  },
  {
    "nombre": "Lenceria",
    "lat": -33.0480655,
    "lng": -71.4428495
  },
  {
    "nombre": "RODAMIENTOS QUILPUÉ",
    "lat": -33.0465331,
    "lng": -71.4375937
  },
  {
    "nombre": "Ficcus Mega Outlet Quilpué",
    "lat": -33.0428938,
    "lng": -71.4569413
  },
  {
    "nombre": "Sex Shop Quilpué - Duo Sexshop",
    "lat": -33.0480655,
    "lng": -71.4428495
  },
  {
    "nombre": "Ripley Quilpué",
    "lat": -33.0478376,
    "lng": -71.4410978
  },
  {
    "nombre": "T.H.C",
    "lat": -33.0467778,
    "lng": -71.4412349
  },
  {
    "nombre": "TOP Underwear",
    "lat": -33.0464742,
    "lng": -71.4428509
  },
  {
    "nombre": "Hites",
    "lat": -33.0464207,
    "lng": -71.4416112
  },
  {
    "nombre": "Boutique Terciopelo",
    "lat": -33.0469565,
    "lng": -71.4362935
  },
  {
    "nombre": "Vip and Glam",
    "lat": -33.0429337,
    "lng": -71.4331925
  },
  {
    "nombre": "Falabella Quilpué",
    "lat": -33.0469326,
    "lng": -71.4409753
  },
  {
    "nombre": "Divas con estilo",
    "lat": -33.0456236,
    "lng": -71.4404651
  },
  {
    "nombre": "Indisca",
    "lat": -33.0465665,
    "lng": -71.4436162
  },
  {
    "nombre": "FREIA Lencería",
    "lat": -37.0608324,
    "lng": -88.1804
  },
  {
    "nombre": "Krystal joyas",
    "lat": -33.046955,
    "lng": -71.4411285
  },
  {
    "nombre": "Joyería Imagen",
    "lat": -33.0469326,
    "lng": -71.4409753
  },
  {
    "nombre": "Vanesa Joyas",
    "lat": -33.0469326,
    "lng": -71.4409753
  },
  {
    "nombre": "Relojería Tic Toc",
    "lat": -33.0472091,
    "lng": -71.4414238
  },
  {
    "nombre": "Joyería MONINA",
    "lat": -33.4378356,
    "lng": -70.636176
  },
  {
    "nombre": "Antiguedades Y Relojeria Locle",
    "lat": -33.045787,
    "lng": -71.440129
  },
  {
    "nombre": "Joyeria Tarsis",
    "lat": -33.0155199,
    "lng": -71.4953155
  },
  {
    "nombre": "Aurus Joyería",
    "lat": -33.0444824,
    "lng": -71.3764964
  },
  {
    "nombre": "L Anolis",
    "lat": -33.0465434,
    "lng": -71.4440892
  },
  {
    "nombre": "Joyería Michelle",
    "lat": -33.0436692,
    "lng": -71.3743169
  },
  {
    "nombre": "Jewelry",
    "lat": -37.0608324,
    "lng": -88.1804
  },
  {
    "nombre": "Optica Y Contactologia Limitada Mundovision",
    "lat": -33.0463251,
    "lng": -71.4444508
  },
  {
    "nombre": "Óptica El Sol",
    "lat": -33.0463911,
    "lng": -71.4423551
  },
  {
    "nombre": "Optica Los Carrera, Quilpué",
    "lat": -33.0481931,
    "lng": -71.4390206
  },
  {
    "nombre": "Optica Quilpue",
    "lat": -33.0467319,
    "lng": -71.4430799
  },
  {
    "nombre": "Optica Joshua",
    "lat": -33.047825,
    "lng": -71.4450075
  },
  {
    "nombre": "Ópticas Schiller",
    "lat": -33.0461724,
    "lng": -71.4442425
  },
  {
    "nombre": "Ópticas Chic",
    "lat": -33.0456505,
    "lng": -71.4418828
  },
  {
    "nombre": "Ópticas Quinta",
    "lat": -33.048385,
    "lng": -71.44349
  },
  {
    "nombre": "Optica Blanco",
    "lat": -33.0464026,
    "lng": -71.4398127
  },
  {
    "nombre": "Óptica Cruz",
    "lat": -33.0479245,
    "lng": -71.4427232
  },
  {
    "nombre": "Optica los Carrera 2",
    "lat": -33.0465093,
    "lng": -71.4070485
  },
  {
    "nombre": "Oftalmología, Contactología Clínica & Óptica MasterView",
    "lat": -33.0477814,
    "lng": -71.4446535
  },
  {
    "nombre": "Óptica Litoral",
    "lat": -33.0465287,
    "lng": -71.4376276
  },
  {
    "nombre": "Ópticas SchillerExpress",
    "lat": -33.0465208,
    "lng": -71.4430668
  },
  {
    "nombre": "Ópticas Lazzarini",
    "lat": -33.0475782,
    "lng": -71.441242
  },
  {
    "nombre": "Optica Pinto",
    "lat": -33.0462542,
    "lng": -71.4401343
  },
  {
    "nombre": "Optimundo",
    "lat": -33.046899,
    "lng": -71.441618
  },
  {
    "nombre": "Optica flexus",
    "lat": -33.0462782,
    "lng": -71.40246
  },
  {
    "nombre": "Opticas Gmo Chile S.A",
    "lat": -33.0439526,
    "lng": -71.4204306
  },
  {
    "nombre": "GMO Jumbo Cenco Belloto",
    "lat": -33.0444258,
    "lng": -71.4220175
  },
  {
    "nombre": "Econoptica Belloto",
    "lat": -33.043204,
    "lng": -71.4340211
  },
  {
    "nombre": "Optica Punto de Vista",
    "lat": -33.0734192,
    "lng": -71.4249581
  },
  {
    "nombre": "Opticas Gmo Chile S.A.",
    "lat": -33.0431109,
    "lng": -71.4340562
  },
  {
    "nombre": "Gran Optica",
    "lat": -33.047704,
    "lng": -71.4460513
  },
  {
    "nombre": "Oftalmología & Contactología Salud visual",
    "lat": -33.0476429,
    "lng": -71.4447783
  },
  {
    "nombre": "Servicios Opticos W Infinito",
    "lat": -33.0468999,
    "lng": -71.4418803
  },
  {
    "nombre": "Contactología, Oftalmología & Óptica MegaOptic",
    "lat": -33.0476429,
    "lng": -71.4447783
  },
  {
    "nombre": "Kosmos",
    "lat": -33.0471204,
    "lng": -71.4422407
  },
  {
    "nombre": "Óptica Optikal rch",
    "lat": -33.0461724,
    "lng": -71.4442425
  },
  {
    "nombre": "GMO Ripley Quilpué",
    "lat": -33.0479592,
    "lng": -71.4411172
  },
  {
    "nombre": "Sierrafigueroaelias Daniel",
    "lat": -33.0464656,
    "lng": -71.4399992
  },
  {
    "nombre": "Eco Farmacias Av Valpo 684",
    "lat": -33.025053,
    "lng": -71.552857
  },
  {
    "nombre": "Farmacia Marga Marga",
    "lat": -33.0564396,
    "lng": -71.4269567
  },
  {
    "nombre": "Farmacias Cruz Verde",
    "lat": -33.0486756,
    "lng": -71.4320816
  },
  {
    "nombre": "Eco Farmacias",
    "lat": -33.045972,
    "lng": -71.4408661
  },
  {
    "nombre": "Eco Farmacias",
    "lat": -33.0458085,
    "lng": -71.4430127
  },
  {
    "nombre": "Farmacias Ahumada",
    "lat": -33.0469851,
    "lng": -71.4416847
  },
  {
    "nombre": "Farmacias Cruz Verde",
    "lat": -33.0464455,
    "lng": -71.4042605
  },
  {
    "nombre": "Bellpro Belleza Profesional",
    "lat": -33.024256,
    "lng": -71.5548
  },
  {
    "nombre": "Concepto. Salón De Belleza Y Barbería.",
    "lat": -33.0463738,
    "lng": -71.4389272
  },
  {
    "nombre": "Salón Integral & Barbería",
    "lat": -33.0468408,
    "lng": -71.441592
  },
  {
    "nombre": "Ardunez peluquería y barbería",
    "lat": -33.0467304,
    "lng": -71.4076595
  },
  {
    "nombre": "Bellisima Centro de Estetica",
    "lat": -33.0468549,
    "lng": -71.4422099
  },
  {
    "nombre": "Valeriana Ecosalon",
    "lat": -33.0465129,
    "lng": -71.4413327
  },
  {
    "nombre": "Barberia Monkey",
    "lat": -33.0465129,
    "lng": -71.4413327
  },
  {
    "nombre": "Salon de Belleza Pontewapa",
    "lat": -33.0425567,
    "lng": -71.4378329
  },
  {
    "nombre": "Peluqueria cabellos Fantasia amor de Geisha",
    "lat": -33.0754121,
    "lng": -71.4218425
  },
  {
    "nombre": "Golden Barberia",
    "lat": -33.0461724,
    "lng": -71.4442425
  },
  {
    "nombre": "Salón de Belleza Integral Paola Cuchietti",
    "lat": -33.0469169,
    "lng": -71.4462433
  },
  {
    "nombre": "Bárbaros Quilpué barbershop",
    "lat": -33.0338867,
    "lng": -71.4026059
  },
  {
    "nombre": "Mens Center",
    "lat": -33.0453946,
    "lng": -71.4392349
  },
  {
    "nombre": "Salon Imagen",
    "lat": -33.0460148,
    "lng": -71.4404794
  },
  {
    "nombre": "Ivan Peluqueria",
    "lat": -33.0473124,
    "lng": -71.4342782
  },
  {
    "nombre": "Donde Monos Barbería",
    "lat": -33.0483247,
    "lng": -71.4493303
  },
  {
    "nombre": "El Shaddai Salón y Peluquería",
    "lat": -33.0466644,
    "lng": -71.4450627
  },
  {
    "nombre": "Any Salon",
    "lat": -33.0468361,
    "lng": -71.4422593
  },
  {
    "nombre": "Barbero Daniel Galeria Del Sol Segundo Piso Local 45",
    "lat": -33.0477934,
    "lng": -71.4425754
  },
  {
    "nombre": "Barberia Los pinos Barber",
    "lat": -33.0705147,
    "lng": -71.4140615
  },
  {
    "nombre": "fadeXcut",
    "lat": -33.0480877,
    "lng": -71.4046361
  },
  {
    "nombre": "Cosméticos Emily",
    "lat": -33.0461724,
    "lng": -71.4442425
  },
  {
    "nombre": "Osito Maquillaje",
    "lat": -33.0461664,
    "lng": -71.444249
  },
  {
    "nombre": "SIRIUS STORE",
    "lat": -33.0469002,
    "lng": -71.4368789
  },
  {
    "nombre": "Preunic S.A.",
    "lat": -33.0451664,
    "lng": -71.4213734
  },
  {
    "nombre": "DBS Beauty Store Cenco Belloto",
    "lat": -33.0453611,
    "lng": -71.4217915
  },
  {
    "nombre": "Todomoda",
    "lat": -33.0448504,
    "lng": -71.4218118
  },
  {
    "nombre": "CHANEL FALABELLA",
    "lat": -33.0468554,
    "lng": -71.4413625
  },
  {
    "nombre": "Cosmeticos por catalogo",
    "lat": -33.0582918,
    "lng": -71.3888665
  },
  {
    "nombre": "Oriflame y Avon, cuidado personal y cosméticos.",
    "lat": -33.1175406,
    "lng": -71.5822412
  },
  {
    "nombre": "BBK Belleza Natural",
    "lat": -33.0732628,
    "lng": -71.4251387
  },
  {
    "nombre": "INDIVA",
    "lat": -33.0431392,
    "lng": -71.3737945
  },
  {
    "nombre": "Namishop",
    "lat": -33.0480301,
    "lng": -71.4424949
  },
  {
    "nombre": "Pernoval S.A.",
    "lat": -33.116791,
    "lng": -71.565679
  },
  {
    "nombre": "Dipromat S.A.",
    "lat": -33.0693709,
    "lng": -71.4179988
  },
  {
    "nombre": "Ferreteria Andina Morello",
    "lat": -33.0455916,
    "lng": -71.4416832
  },
  {
    "nombre": "Casa Portales",
    "lat": -33.0458735,
    "lng": -71.4413962
  },
  {
    "nombre": "Ferretería los castaños",
    "lat": -33.0725019,
    "lng": -71.4244275
  },
  {
    "nombre": "Ferreteria Norte Sur",
    "lat": -33.0464296,
    "lng": -71.4564154
  },
  {
    "nombre": "El Gitano",
    "lat": -33.0574041,
    "lng": -71.4614714
  },
  {
    "nombre": "Construmart - El Belloto",
    "lat": -33.0430883,
    "lng": -71.4189202
  },
  {
    "nombre": "FERRETERIA EL RETIRO QUILPUE",
    "lat": -33.0388357,
    "lng": -71.4408245
  },
  {
    "nombre": "ECONOMAT SPA",
    "lat": -33.0450601,
    "lng": -71.4599792
  },
  {
    "nombre": "Centro Ferretero Belloto",
    "lat": -33.0478128,
    "lng": -71.404309
  },
  {
    "nombre": "Ferretería Bayona spa",
    "lat": -33.0546638,
    "lng": -71.4650742
  },
  {
    "nombre": "Ferreteria Lincoyan",
    "lat": -33.0218283,
    "lng": -71.4015579
  },
  {
    "nombre": "FERRETERÍA H.E.M.B.O.",
    "lat": -33.0324768,
    "lng": -71.406953
  },
  {
    "nombre": "Ferretería y Constructora DCA",
    "lat": -33.0409298,
    "lng": -71.4724636
  },
  {
    "nombre": "Ferretería Mawe",
    "lat": -33.0585569,
    "lng": -71.4051324
  },
  {
    "nombre": "LA CASA DEL PPR",
    "lat": -33.0430702,
    "lng": -71.416809
  },
  {
    "nombre": "DICAR",
    "lat": -33.047034,
    "lng": -71.4491607
  },
  {
    "nombre": "FERRETERIA KILL",
    "lat": -33.0433071,
    "lng": -71.4332527
  },
  {
    "nombre": "Ferreteria SyM Quilpue",
    "lat": -33.0480724,
    "lng": -71.443672
  },
  {
    "nombre": "Ferretería El Sol",
    "lat": -33.045417,
    "lng": -71.458572
  },
  {
    "nombre": "Lubricantes Espineira",
    "lat": -33.0535406,
    "lng": -71.427476
  },
  {
    "nombre": "Lubricentro HVR",
    "lat": -33.0460167,
    "lng": -71.412467
  },
  {
    "nombre": "Area64 Mecanica Automotriz",
    "lat": -33.0427225,
    "lng": -71.4122525
  },
  {
    "nombre": "Lubricentro y Car Wash Belloto",
    "lat": -33.0464823,
    "lng": -71.4076974
  },
  {
    "nombre": "Taller Emanuel Olfos",
    "lat": -33.0484761,
    "lng": -71.4342535
  },
  {
    "nombre": "Lubricenter AuToBas",
    "lat": -33.0483191,
    "lng": -71.4105978
  },
  {
    "nombre": "Ok Mecánica",
    "lat": -33.0515496,
    "lng": -71.4224657
  },
  {
    "nombre": "Auto Stock Repuestos",
    "lat": -33.0466821,
    "lng": -71.4363526
  },
  {
    "nombre": "AUTOREPUESTOS MB",
    "lat": -33.0468757,
    "lng": -71.4353482
  },
  {
    "nombre": "Alexander",
    "lat": -33.0468458,
    "lng": -71.4356123
  },
  {
    "nombre": "Autoplanet Quilpue",
    "lat": -33.0468776,
    "lng": -71.4386534
  },
  {
    "nombre": "Automotriz Meneses",
    "lat": -33.0467292,
    "lng": -71.4364119
  },
  {
    "nombre": "LEWCE Repuestos",
    "lat": -33.0469036,
    "lng": -71.4349795
  },
  {
    "nombre": "RODAMIENTOS QUILPUÉ",
    "lat": -33.0465331,
    "lng": -71.4375937
  },
  {
    "nombre": "REPUESTOS AUTOREP TOYOTA Y CHEVROLET",
    "lat": -33.0471812,
    "lng": -71.4356076
  },
  {
    "nombre": "Repuestos Belloto",
    "lat": -33.01894,
    "lng": -71.405877
  },
  {
    "nombre": "Desarmaduria San Martin",
    "lat": -33.0430527,
    "lng": -71.4656114
  },
  {
    "nombre": "Automotriz Meneses",
    "lat": -33.0445537,
    "lng": -71.3818883
  },
  {
    "nombre": "Repuestos Olmos 1265 local 1",
    "lat": -33.0468752,
    "lng": -71.4353518
  },
  {
    "nombre": "Vigu Repuestos",
    "lat": -33.046912,
    "lng": -71.4349856
  },
  {
    "nombre": "Ayala Repuestos",
    "lat": -33.0442511,
    "lng": -71.3786895
  },
  {
    "nombre": "Autosur",
    "lat": -33.0468471,
    "lng": -71.4356027
  },
  {
    "nombre": "Frenos Giovanna",
    "lat": -33.0466249,
    "lng": -71.4362305
  },
  {
    "nombre": "Auto-Stock Repuestos",
    "lat": -33.0442895,
    "lng": -71.3808738
  },
  {
    "nombre": "Repuestos Oriente Quilpué",
    "lat": -33.0473124,
    "lng": -71.4342782
  },
  {
    "nombre": "Kaudio",
    "lat": -33.0483811,
    "lng": -71.4328386
  },
  {
    "nombre": "Rueda Centro - Alineamiento y Balanceo",
    "lat": -33.0452881,
    "lng": -71.4372635
  },
  {
    "nombre": "Mascotas quilpue",
    "lat": -33.0457124,
    "lng": -71.44353
  },
  {
    "nombre": "Animal Food",
    "lat": -33.0563344,
    "lng": -71.4269625
  },
  {
    "nombre": "Entre pelos y perros",
    "lat": -33.0407131,
    "lng": -71.4722707
  },
  {
    "nombre": "Food Power",
    "lat": -33.045736,
    "lng": -71.4128689
  },
  {
    "nombre": "Domy's Shop & pet grooming",
    "lat": -33.046838,
    "lng": -71.4431007
  },
  {
    "nombre": "PetCentral",
    "lat": -33.0743247,
    "lng": -71.4208869
  },
  {
    "nombre": "Happy Pets",
    "lat": -33.0466769,
    "lng": -71.4438834
  },
  {
    "nombre": "Befoods",
    "lat": -33.0459778,
    "lng": -71.4428882
  },
  {
    "nombre": "EXOTIC PETS",
    "lat": -33.0465543,
    "lng": -71.4439097
  },
  {
    "nombre": "House Pet",
    "lat": -33.0455786,
    "lng": -71.4003021
  },
  {
    "nombre": "La Ponderosa",
    "lat": -33.0459081,
    "lng": -71.4425784
  },
  {
    "nombre": "SQUISHY PET",
    "lat": -33.0420904,
    "lng": -71.4632524
  },
  {
    "nombre": "Pet Ganesh",
    "lat": -33.0478199,
    "lng": -71.4304466
  },
  {
    "nombre": "happy pets",
    "lat": -33.035851,
    "lng": -71.4841017
  },